id,parent_id,name,Latitude,Longitude
1101010,1101,TEUPAH SELATAN,2.2738827445,96.513062697495
1101020,1101,SIMEULUE TIMUR,2.5382471300006,96.316215958525
1101021,1101,TEUPAH BARAT,2.4483287785,96.220352578001
1101022,1101,TEUPAH TENGAH,2.407087034502,96.346351218077
1101030,1101,SIMEULUE TENGAH,2.6260558764982,96.048626298931
1101031,1101,TELUK DALAM,2.6478292040003,96.153125367008
1101032,1101,SIMEULUE CUT,2.6047916045046,95.934081918672
1101040,1101,SALANG,2.6728654114999,95.854035678992
1101050,1101,SIMEULUE BARAT,2.7946343975001,95.953281501003
1101051,1101,ALAFAN,2.8612178494998,95.602882879992
1102010,1102,PULAU BANYAK,2.2603235335002,97.375390389004
1102011,1102,PULAU BANYAK BARAT,2.1578773015,97.234976282997
1102020,1102,SINGKIL,2.3352877230009,97.804449892037
1102021,1102,SINGKIL UTARA,2.2448669834998,98.006072678491
1102022,1102,KUALA BARU,2.3614563289999,97.673419963496
1102030,1102,SIMPANG KANAN,2.4079211740009,98.037092785538
1102031,1102,GUNUNG MERIAH,2.3940494074995,97.964136358479
1102032,1102,DANAU PARIS,2.3127871315005,98.112520645518
1102033,1102,SURO,2.530352222497,98.024271097878
1102042,1102,SINGKOHOR,2.5001323339985,97.940895222434
1102043,1102,KOTA BAHARU,2.4628439115002,97.858888223005
1103010,1103,TRUMON,2.6380753274995,97.708471569479
1103011,1103,TRUMON TIMUR,2.8835366505007,97.81065261052
1103012,1103,TRUMON TENGAH,2.8942266124976,97.659239574422
1103020,1103,BAKONGAN,2.9610274099967,97.456076244384
1103021,1103,BAKONGAN TIMUR,2.9111470265061,97.555684722692
1103022,1103,KOTA BAHAGIA,3.0221733164998,97.552847016994
1103030,1103,KLUET SELATAN,3.0294224160002,97.434325239508
1103031,1103,KLUET TIMUR,3.23056178,97.459219341997
1103040,1103,KLUET UTARA,3.1287943749992,97.345608634968
1103041,1103,PASIE RAJA,3.2297760445012,97.30675954553
1103042,1103,KLUET TENGAH,3.4035207454999,97.359011241495
1103050,1103,TAPAK TUAN,3.2880866155009,97.214927199028
1103060,1103,SAMA DUA,3.3551836169992,97.195743133473
1103070,1103,SAWANG,3.4351094220002,97.169694655004
1103080,1103,MEUKEK,3.5793117025002,97.163182195004
1103090,1103,LABUHAN HAJI,3.6371583434997,97.065634565494
1103091,1103,LABUHAN HAJI TIMUR,3.6187367020015,97.081745096542
1103092,1103,LABUHAN HAJI BARAT,3.6509875145,97.046927004498
1104010,1104,LAWE ALAS,3.4403213754943,97.819721616843
1104011,1104,BABUL RAHMAH,3.148428026,97.790034622998
1104012,1104,TANOH ALAS,3.2223777244995,97.666259745984
1104020,1104,LAWE SIGALA-GALA,3.3463764889952,97.943696278861
1104021,1104,BABUL MAKMUR,3.3152121049938,97.966395599819
1104022,1104,SEMADAM,3.3918664979975,97.879370966925
1104023,1104,LAUSER,3.1520565980018,97.922264873049
1104030,1104,BAMBEL,3.4488871800004,97.89007997951
1104031,1104,BUKIT TUSAM,3.4135039120151,97.868864319943
1104032,1104,LAWE SUMUR,3.4751103674902,97.892401141221
1104040,1104,BABUSSALAM,3.4867392455203,97.807427406584
1104041,1104,LAWE BULAN,3.5025642600106,97.867180444298
1104050,1104,BADAR,3.5968242705022,97.81727551056
1104051,1104,DARUL HASANAH,3.4938575260001,97.503541482501
1104052,1104,KETAMBE,3.6567205465002,97.723654106505
1104053,1104,DELENG POKHKISEN,3.532672179997,97.858323669415
1105080,1105,SERBA JADI,4.4587113220001,97.468888213999
1105081,1105,SIMPANG JERNIH,4.3739870624985,97.694665037465
1105082,1105,PEUNARON,4.6209151325017,97.653345391532
1105090,1105,BIREM BAYEUN,4.4851855309995,97.886333119487
1105100,1105,RANTAU SELAMAT,4.6063998710015,97.846152087028
1105101,1105,SUNGAI RAYA,4.6721276209973,97.879270276439
1105110,1105,PEUREULAK,4.7792623680024,97.848805868049
1105111,1105,PEUREULAK TIMUR,4.7218866220015,97.886407003034
1105112,1105,PEUREULAK BARAT,4.8525841214883,97.854430368253
1105120,1105,RANTO PEUREULAK,4.7565544360005,97.713402674011
1105130,1105,IDI RAYEUK,4.9548551605143,97.761510057782
1105131,1105,PEUDAWA,4.8884123424995,97.815091361985
1105132,1105,BANDA ALAM,4.8646096784962,97.692214101917
1105133,1105,IDI TUNONG,4.9089611224871,97.719799316248
1105134,1105,DARUL IHSAN,4.9060445105057,97.76058574361
1105135,1105,IDI TIMUR,4.9110578710035,97.796343401062
1105140,1105,DARUL AMAN,4.966071826995,97.707489355409
1105150,1105,NURUSSALAM,4.9697084354989,97.66480595398
1105151,1105,DARUL FALAH,5.0129611160143,97.643586561262
1105160,1105,JULOK,5.0385686230067,97.600389647627
1105161,1105,INDRA MAKMUR,4.861722271999,97.589031395974
1105170,1105,PANTE BIDARI,4.921941928499,97.445490602978
1105180,1105,SIMPANG ULIM,5.1138050004922,97.579955581851
1105181,1105,MADAT,5.1713283875007,97.518095017518
1106010,1106,LINGE,4.3628738629999,97.073620971496
1106011,1106,ATU LINTANG,4.4376551365059,96.780330064627
1106012,1106,JAGONG JEGET,4.375957876002,96.723642175545
1106020,1106,BINTANG,4.5493145719998,97.135704370996
1106031,1106,LUT TAWAR,4.5820437804917,96.880956557326
1106032,1106,KEBAYAKAN,4.6592048445089,96.869523938182
1106040,1106,PEGASING,4.5010038515008,96.723298218016
1106041,1106,BIES,4.6110341615012,96.79216809452
1106050,1106,BEBESEN,4.6378553224931,96.813285714352
1106051,1106,KUTE PANANG,4.6840657264721,96.771529586918
1106060,1106,SILIH NARA,4.6233429239927,96.719754720842
1106061,1106,KETOL,4.8032841854995,96.597146626489
1106062,1106,CELALA,4.5354566415012,96.681049180523
1106063,1106,RUSIP ANTARA,4.7256575334993,96.463582889986
1107050,1107,JOHAN PAHLAWAN,4.1866612170049,96.117953379612
1107060,1107,SAMATIGA,4.2509938715031,96.061422415567
1107061,1107,BUBON,4.3017629604958,96.115392660411
1107062,1107,ARONGAN LAMBALEK,4.3337936925023,95.953590400048
1107070,1107,WOYLA,4.4023972230009,96.09380342102
1107071,1107,WOYLA BARAT,4.4159472435016,95.984856167528
1107072,1107,WOYLA TIMUR,4.463685896003,96.089612062565
1107080,1107,KAWAY XVI,4.2717118924993,96.209865075986
1107081,1107,MEUREUBO,4.1644431315046,96.208985842611
1107082,1107,PANTAI CEUREMEN,4.4859488359999,96.331581069998
1107083,1107,PANTON REU,4.4481293469972,96.209037894436
1107090,1107,SUNGAI MAS,4.6361312119995,96.237477338989
1108010,1108,LHOONG,5.2644545975026,95.286277800045
1108020,1108,LHOKNGA,5.4683436600094,95.260858740162
1108021,1108,LEUPUNG,5.3437342189859,95.311398239746
1108030,1108,INDRAPURI,5.4175645800037,95.457928860066
1108031,1108,KUTA COT GLIE,5.3423054139977,95.47178003996
1108040,1108,SEULIMEUM,5.4676679619995,95.638938335989
1108041,1108,KOTA JANTHO,5.1861663900002,95.680536840003
1108042,1108,LEMBAH SEULAWAH,5.3673237900073,95.707380240126
1108050,1108,MESJID RAYA,5.5766870620019,95.498233548033
1108060,1108,DARUSSALAM,5.5950632550062,95.418407520101
1108061,1108,BAITUSSALAM,5.5998474204671,95.383099799441
1108070,1108,KUTA BARO,5.5564172099942,95.426614259897
1108080,1108,MONTASIK,5.4963121049948,95.459457239912
1108081,1108,BLANG BINTANG,5.5281017249859,95.440394159751
1108090,1108,INGIN JAYA,5.5092169359708,95.374367099492
1108091,1108,KRUENG BARONA JAYA,5.5495346293983,95.36308343823
1108100,1108,SUKA MAKMUR,5.4328208850135,95.364281520232
1108101,1108,KUTA MALAKA,5.4306297450436,95.395370400749
1108102,1108,SIMPANG TIGA,5.4515708999907,95.342833619833
1108110,1108,DARUL IMARAH,5.5052557470079,95.314937760144
1108111,1108,DARUL KAMAL,5.4657405000665,95.324808241158
1108120,1108,PEUKAN BADA,5.5411243634905,95.221380274334
1108130,1108,PULO ACEH,5.6781442610054,95.102543627094
1109010,1109,GEUMPANG,4.8497255560007,96.277957129514
1109011,1109,MANE,4.8685507624986,96.131350798472
1109070,1109,GLUMPANG TIGA,5.2091616484961,96.026551499925
1109071,1109,GLUMPANG BARO,5.2790513639619,96.030973260787
1109080,1109,MUTIARA,5.2884370229964,95.973129682436
1109081,1109,MUTIARA TIMUR,5.2608527994863,95.988755974254
1109090,1109,TIRO/TRUSEB,5.137974039999,95.985069512478
1109100,1109,TANGSE,5.0349197150007,95.937246776513
1109111,1109,KEUMALA,5.2193682235109,95.865699388202
1109112,1109,TITEUE,5.2052294570167,95.911230323815
1109120,1109,SAKTI,5.2454122225146,95.923043899769
1109130,1109,MILA,5.2842416075,95.88971857449
1109140,1109,PADANG TIJI,5.3473007980012,95.818880979525
1109150,1109,DELIMA,5.3401115059027,95.901057034743
1109151,1109,GRONG GRONG,5.3741268468983,95.901662501178
1109160,1109,INDRAJAYA,5.3113422155301,95.939065090548
1109170,1109,PEUKAN BARO,5.3206888029802,95.963830121143
1109180,1109,KEMBANG TANJONG,5.3117818485238,96.047452948429
1109190,1109,SIMPANG TIGA,5.3413442080262,95.99646717098
1109200,1109,KOTA SIGLI,5.382041870906,95.955143498323
1109210,1109,PIDIE,5.3759578059984,95.935403358463
1109220,1109,BATEE,5.4264900204868,95.89151487077
1109230,1109,MUARA TIGA,5.5067787049959,95.808737469429
1110010,1110,SAMALANGA,5.0805302934915,96.357754473834
1110011,1110,SIMPANG MAMPLAM,5.0840356729999,96.428305842497
1110020,1110,PANDRAH,5.0741568069997,96.447670399488
1110030,1110,JEUNIEB,5.0641922545034,96.478988464064
1110031,1110,PEULIMBANG,5.0476141594968,96.506304236936
1110040,1110,PEUDADA,5.0516961344966,96.565252975433
1110050,1110,JULI,5.073371476495,96.6703484224
1110060,1110,JEUMPA,5.1454597910159,96.6533149778
1110061,1110,KOTA JUANG,5.1908074790053,96.711805223106
1110062,1110,KUALA,5.2311295860091,96.717409542167
1110070,1110,JANGKA,5.246601813479,96.795551958113
1110080,1110,PEUSANGAN,5.1968387429796,96.773697313621
1110081,1110,PEUSANGAN SELATAN,5.0675971869945,96.766145708893
1110082,1110,PEUSANGAN SIBLAH KRUENG,5.0675186800001,96.802804894494
1110090,1110,MAKMUR,5.1490816070003,96.8519689895
1110100,1110,GANDA PURA,5.2285249384806,96.881843842633
1110101,1110,KUTA BLANG,5.2090378040143,96.830149023264
1111010,1111,SAWANG,5.064220337,96.888314670496
1111020,1111,NISAM,5.1738870044922,97.010665439855
1111021,1111,NISAM ANTARA,5.0132765005008,96.937971735014
1111022,1111,BANDA BARO,5.1840309845145,96.974252960776
1111030,1111,KUTA MAKMUR,5.0940800855003,97.043208827513
1111031,1111,SIMPANG KERAMAT,5.0530397735017,97.136854487029
1111040,1111,SYAMTALIRA BAYU,5.0826884119997,97.176191275993
1111041,1111,GEUREUDONG PASE,4.9646622110014,97.012274614525
1111050,1111,MEURAH MULIA,5.0608658599992,97.190088338488
1111060,1111,MATANGKULI,5.0305478289995,97.27281705299
1111061,1111,PAYA BAKONG,4.9335781274998,97.231562041996
1111062,1111,PIRAK TIMU,4.9889227260118,97.281941595735
1111070,1111,COT GIREK,4.8614614660016,97.349758019529
1111080,1111,TANAH JAMBO AYE,5.1003426325035,97.462168225066
1111081,1111,LANGKAHAN,4.920889115001,97.438009887016
1111090,1111,SEUNUDDON,5.1978756089961,97.406662799921
1111100,1111,BAKTIYA,5.0621298560035,97.408237766568
1111101,1111,BAKTIYA BARAT,5.1291600280252,97.34500527597
1111110,1111,LHOKSUKON,5.0352379300075,97.367902709641
1111120,1111,TANAH LUAS,4.9824712575016,97.124946450032
1111121,1111,NIBONG,5.0447774319999,97.218107371494
1111130,1111,SAMUDERA,5.105144995995,97.230362014904
1111140,1111,SYAMTALIRA ARON,5.1011504384778,97.257021743591
1111150,1111,TANAH PASIR,5.1346025959913,97.264534386829
1111151,1111,LAPANG,5.1442294314664,97.290898415383
1111160,1111,MUARA BATU,5.2394814889991,96.948930915982
1111170,1111,DEWANTARA,5.234289704518,97.007052430834
1112010,1112,MANGGENG,3.6199051260018,96.924296077544
1112011,1112,LEMBAH SABIL,3.6112111935046,96.97437403162
1112020,1112,TANGAN-TANGAN,3.6528119070004,96.972696495509
1112021,1112,SETIA,3.6931818559986,96.972297456961
1112030,1112,BLANG PIDIE,3.7853873599993,96.979416969481
1112031,1112,JEUMPA,3.8514375114999,96.953105928495
1112040,1112,SUSOH,3.7291098110081,96.817997387702
1112050,1112,KUALA BATEE,3.8590116840006,96.860973067013
1112060,1112,BABAH ROT,3.9165767065,96.695067997
1113010,1113,KUTA PANJANG,3.8813662499994,97.222525871488
1113011,1113,BLANG JERANGO,3.9414901900002,97.170354023004
1113020,1113,BLANGKEJEREN,3.9499139994986,97.383416783464
1113021,1113,PUTRI BETUNG,3.7943139690002,97.506220584003
1113022,1113,DABUN GELANG,3.9802324055007,97.512454028017
1113023,1113,BLANG PEGAYON,3.8387404734996,97.265839572988
1113030,1113,PINING,3.9959686465003,97.666923210006
1113040,1113,RIKIT GAIB,4.1287479725003,97.294121462007
1113041,1113,PANTAN CUACA,4.1650625450027,97.180424076061
1113050,1113,TERANGUN,4.0587919035,96.919737119
1113051,1113,TRIPE JAYA,4.1744814140001,96.957374837501
1114010,1114,TAMIANG HULU,4.1617620069982,97.846297118457
1114011,1114,BANDAR PUSAKA,4.2831769150006,97.867854008014
1114020,1114,KEJURUAN MUDA,4.1934653585019,98.020239695542
1114021,1114,TENGGULUN,4.0262390010004,97.918337910511
1114030,1114,RANTAU,4.3096093684997,98.106490614487
1114040,1114,KOTA KUALA SIMPANG,4.2863584510613,98.063620208405
1114050,1114,SERUWAY,4.3522978310003,98.202927061003
1114060,1114,BENDAHARA,4.4177201790007,98.181346511015
1114061,1114,BANDA MULIA,4.4437182045066,98.142226477645
1114070,1114,KARANG BARU,4.3367525300007,98.026644838015
1114071,1114,SEKERAK,4.3034481810022,97.915120243548
1114080,1114,MANYAK PAYED,4.4372859939996,98.050261738493
1115010,1115,DARUL MAKMUR,3.954000578,96.573528262499
1115011,1115,TRIPA MAKMUR,3.921681129499,96.411953359975
1115020,1115,KUALA,4.0899732264974,96.29545117443
1115021,1115,KUALA PESISIR,4.0539707245014,96.253009903524
1115022,1115,TADU RAYA,4.0612322995008,96.405705043517
1115030,1115,BEUTONG,4.3772416430001,96.588566757001
1115031,1115,BEUTONG ATEUH BANGGALANG,4.4560029220053,96.526059013102
1115040,1115,SEUNAGAN,4.2294111630047,96.313365525117
1115041,1115,SUKA MAKMUE,4.1817912949987,96.321629447472
1115050,1115,SEUNAGAN TIMUR,4.3341958054992,96.391433847981
1116010,1116,TEUNOM,4.4994064220009,95.854732437517
1116011,1116,PASIE RAYA,4.6134475864985,95.944020864967
1116020,1116,PANGA,4.621760853999,95.82429538548
1116030,1116,KRUENG SABEE,4.7708857045004,95.780532340507
1116040,1116,SETIA BAKTI,4.8371666884994,95.651927664987
1116050,1116,SAMPOINIET,4.9356501819997,95.515250568995
1116051,1116,DARUL HIKMAH,4.9118154604978,95.606423647458
1116060,1116,JAYA,5.1524060009973,95.462829977948
1116061,1116,INDRA JAYA,5.0137028399994,95.464429077987
1117010,1117,TIMANG GAJAH,4.7939933559997,96.772100823495
1117011,1117,GAJAH PUTIH,4.8076647480146,96.743332930297
1117020,1117,PINTU RIME GAYO,4.8976150760001,96.764684905501
1117030,1117,BUKIT,4.7306250935014,96.874653190522
1117040,1117,WIH PESAM,4.726951950498,96.781369717457
1117050,1117,BANDAR,4.7081014375028,96.942911364558
1117051,1117,BENER KELIPAH,4.7731071894875,96.927352732251
1117060,1117,SYIAH UTAMA,4.7449995474999,97.1540612825
1117061,1117,MESIDAH,4.7693449424992,97.057899675482
1117070,1117,PERMATA,4.8237963054953,96.933348421905
1118010,1118,MEUREUDU,5.0864128395003,96.242130100504
1118020,1118,MEURAH DUA,5.2207154459724,96.260677589489
1118030,1118,BANDAR DUA,5.1137658795082,96.307607858154
1118040,1118,JANGKA BUYA,5.2221411880059,96.325631913108
1118050,1118,ULIM,5.1825805245124,96.267624086233
1118060,1118,TRIENGGADENG,5.2172152199922,96.177863687358
1118070,1118,PANTERAJA,5.2577166780647,96.149699250196
1118080,1118,BANDAR BARU,5.1882863429941,96.089033129893
1171010,1171,MEURAXA,5.5543043229907,95.296864186848
1171011,1171,JAYA BARU,5.5359101515687,95.295578123198
1171012,1171,BANDA RAYA,5.5276675175018,95.314958664523
1171020,1171,BAITURRAHMAN,5.5459559949366,95.319311478935
1171021,1171,LUENG BATA,5.5397844543796,95.335113817917
1171030,1171,KUTA ALAM,5.570610443538,95.330621804145
1171031,1171,KUTA RAJA,5.5679014559443,95.315671875516
1171040,1171,SYIAH KUALA,5.5825480110196,95.349536172332
1171041,1171,ULEE KARENG,5.547437527676,95.348171882525
1172010,1172,SUKAJAYA,5.8364707230088,95.317308394147
1172020,1172,SUKAKARYA,5.9451750935045,95.224555480072
1173010,1173,LANGSA TIMUR,4.4775902199937,98.032151584361
1173011,1173,LANGSA LAMA,4.4475992314982,97.961972127959
1173020,1173,LANGSA BARAT,4.5161456210035,98.012785387077
1173021,1173,LANGSA BARO,4.4915595349966,97.923922978925
1173030,1173,LANGSA KOTA,4.4720073444375,97.975195113637
1174010,1174,BLANG MANGAT,5.1269345284984,97.12992151297
1174020,1174,MUARA DUA,5.1623029570349,97.128937709646
1174021,1174,MUARA SATU,5.1991707594669,97.071533159382
1174030,1174,BANDA SAKTI,5.1908627474833,97.132659830194
1175010,1175,SIMPANG KIRI,2.7170371044996,98.002955230479
1175020,1175,PENANGGALAN,2.6439747869986,98.050489279453
1175030,1175,RUNDENG,2.7016292004992,97.852649391972
1175040,1175,SULTAN DAULAT,2.8510614990003,97.937012055507
1175050,1175,LONGKIB,2.577678794,97.891430587996
1201060,1201,IDANO GAWO,1.0528066669998,97.779495555474
1201061,1201,BAWOLATO,0.98221557450008,97.868879785006
1201062,1201,ULUGAWO,0.98997694399969,97.72906583297
1201070,1201,GIDO,1.1196924160002,97.731545277511
1201071,1201,SOGAEADU,1.0996512654997,97.723951773469
1201081,1201,MA U,1.0417980555004,97.63876055553
1201082,1201,SOMOLO - MOLO,1.0345716665007,97.666970278059
1201130,1201,HILIDUHO,1.235844750001,97.533354177583
1201131,1201,HILI SERANGKAI,1.1492327360004,97.602394492537
1201132,1201,BOTOMUZOI,1.1701871720002,97.542504444521
1202010,1202,BATAHAN,0.3667576760001,99.235665591502
1202011,1202,SINUNUKAN,0.47292047350009,99.265868089512
1202020,1202,BATANG NATAL,0.66390662450005,99.434211333999
1202021,1202,LINGGA BAYU,0.59431656950006,99.280089588497
1202022,1202,RANTO BAEK,0.51718005049997,99.373287150497
1202030,1202,KOTANOPAN,0.61573732799998,99.722742951983
1202031,1202,ULU PUNGKUT,0.5351082775001,99.780575094501
1202032,1202,TAMBANGAN,0.68902180949995,99.655017063987
1202033,1202,LEMBAH SORIK MARAPI,0.74066970900011,99.602162674497
1202034,1202,PUNCAK SORIK MARAPI,0.68804708050004,99.575942875505
1202040,1202,MUARA SIPONGI,0.61639798750026,99.88852374554
1202041,1202,PAKANTAN,0.5250157070001,99.895464186005
1202050,1202,PANYABUNGAN,0.84802033200011,99.62557230901
1202051,1202,PANYABUNGAN SELATAN,0.74852332750004,99.532429944491
1202052,1202,PANYABUNGAN BARAT,0.81699577049999,99.496438561495
1202053,1202,PANYABUNGAN UTARA,0.93242816399995,99.556595510989
1202054,1202,PANYABUNGAN TIMUR,0.79458457500008,99.717165007005
1202055,1202,HUTA BARGOT,0.87459489350032,99.457382075523
1202060,1202,NATAL,0.68654872150009,99.220282073006
1202070,1202,MUARA BATANG GADIS,1.0687935805,99.115697469498
1202080,1202,SIABU,1.0339935319998,99.446659123477
1202081,1202,BUKIT MALINTANG,0.97999329449984,99.537873536983
1202082,1202,NAGA JUANG,0.9268011425002,99.446019650017
1203010,1203,BATANG ANGKOLA,1.2239102525,99.227849853993
1203011,1203,SAYUR MATINGGI,1.1291873335002,99.313765063516
1203012,1203,TANO TOMBANGAN ANGKOLA,1.047510366,99.3702834415
1203070,1203,ANGKOLA TIMUR,1.4394336605001,99.324886248504
1203080,1203,ANGKOLA SELATAN,1.3231103440002,99.168088828509
1203090,1203,ANGKOLA  BARAT,1.4175863840005,99.151191148033
1203091,1203,ANGKOLA SANGKUNUR,1.3592963034996,99.023692611965
1203100,1203,BATANG TORU,1.5609654710003,99.089386012514
1203101,1203,MARANCAR,1.518921849501,99.162944999062
1203102,1203,MUARA BATANG TORU,1.3770058749999,98.897539611489
1203110,1203,SIPIROK,1.6046782810001,99.316011989501
1203120,1203,ARSE,1.702966981,99.362415086499
1203160,1203,SAIPAR DOLOK HOLE,1.8260053645001,99.422113733499
1203161,1203,AEK BILAH,2.0022806254997,99.470130866487
1204010,1204,PINANG SORI,1.5480243345,98.859366040491
1204011,1204,BADIRI,1.5808978040001,98.840956330502
1204020,1204,SIBABANGUN,1.5889610385003,99.002212375007
1204021,1204,LUMUT,1.551140701,98.875569475494
1204022,1204,SUKABANGUN,1.4592818180017,98.940116904112
1204030,1204,PANDAN,1.6860220295025,98.839992140637
1204031,1204,TUKKA,1.7046830910004,98.911243869524
1204032,1204,SARUDIK,1.7324380440008,98.843695146048
1204040,1204,TAPIAN NAULI,1.7308609170001,98.622400128001
1204041,1204,SITAHUIS,1.8079313889985,98.825146229907
1204050,1204,KOLANG,1.8662215345003,98.695645225019
1204060,1204,SORKAM,1.9171243324997,98.657475605979
1204061,1204,SORKAM BARAT,1.9055681729985,98.565728843426
1204062,1204,PASARIBU TOBING,1.9902791274985,98.622054802426
1204070,1204,BARUS,2.0302086305019,98.4121796551
1204071,1204,SOSOR GADONG,2.0071863390001,98.519245349003
1204072,1204,ANDAM DEWI,2.0588134735025,98.402457001115
1204073,1204,BARUS UTARA,2.0596854395014,98.438304014064
1204080,1204,MANDUAMAS,2.1696074520003,98.22817493501
1204081,1204,SIRANDORUNG,2.1010114225,98.330718469496
1205030,1205,PARMONANGAN,2.0573718360004,98.801347604018
1205040,1205,ADIANKOTING,1.875740782,98.889995246999
1205050,1205,SIPOHOLON,2.0655419909994,98.918643589468
1205060,1205,TARUTUNG,2.0197712000001,98.979958926505
1205061,1205,SIATAS BARITA,2.0059680425,99.049055223497
1205070,1205,PAHAE JULU,1.8883509445007,99.061790404532
1205080,1205,PAHAE JAE,1.8233712104997,99.122987087483
1205081,1205,PURBATUA,1.7186933734999,99.065037810992
1205082,1205,SIMANGUMBAN,1.7616281644998,99.218555385992
1205090,1205,PANGARIBUAN,1.9718426289999,99.209164404993
1205100,1205,GAROGA,2.0257616065001,99.343680844006
1205110,1205,SIPAHUTAR,2.12734236,99.150513258997
1205120,1205,SIBORONGBORONG,2.1941517670002,99.044029621502
1205130,1205,PAGARAN,2.1839351755001,98.872803984002
1205180,1205,MUARA,2.3180233240002,98.930940279009
1206030,1206,BALIGE,2.3072397850006,99.080927766527
1206031,1206,TAMPAHAN,2.308453996497,99.015075289864
1206040,1206,LAGUBOTI,2.3289226924998,99.163328922987
1206050,1206,HABINSARAN,2.3571095950001,99.3401903615
1206051,1206,BORBOR,2.2084481339997,99.276301663983
1206052,1206,NASSAU,2.3364996314988,99.483598137953
1206060,1206,SILAEN,2.4201684175009,99.282431813037
1206061,1206,SIGUMPAR,2.390074822994,99.179668455255
1206070,1206,PORSEA,2.4777914850006,99.131211000027
1206071,1206,PINTU POHAN MERANTI,2.5404452155008,99.337408039028
1206072,1206,SIANTAR NARUMONDA,2.4578625149953,99.214665653808
1206073,1206,PARMAKSIAN,2.4885098119974,99.1929880799
1206080,1206,LUMBAN JULU,2.5675075815009,99.02975518253
1206081,1206,ULUAN,2.452006906496,99.081285725829
1206082,1206,AJIBATA,2.6076895459998,98.94893428449
1206083,1206,BONATUA LUNASI,2.5334285810082,99.132577020322
1207050,1207,BILAH HULU,1.9439998120001,99.933671994005
1207070,1207,PANGKATAN,2.1898157575003,100.02254657551
1207080,1207,BILAH BARAT,2.0664191190002,99.812469673006
1207130,1207,BILAH HILIR,2.3251726869994,100.04809705547
1207140,1207,PANAI HULU,2.3979088445,100.113138862
1207150,1207,PANAI TENGAH,2.3671543949996,100.25014597698
1207160,1207,PANAI HILIR,2.6397688829989,100.18573766346
1207210,1207,RANTAU SELATAN,2.0666471089999,99.834110834496
1207220,1207,RANTAU UTARA,2.0993296765021,99.828757104106
1208010,1208,BANDAR PASIR MANDOGE,2.7304301309998,99.267190639994
1208020,1208,BANDAR PULAU,2.6638101245001,99.399297778001
1208021,1208,AEK SONGSONGAN,2.6026805835011,99.38264945854
1208022,1208,RAHUNING,2.723109176999,99.491135142965
1208030,1208,PULAU RAKYAT,2.7349294964989,99.685251299456
1208031,1208,AEK KUASAN,2.6757385109998,99.691385799992
1208032,1208,AEK LEDONG,2.6169047519971,99.63424344439
1208040,1208,SEI KEPAYANG,2.8168312735,99.868338152002
1208041,1208,SEI KEPAYANG BARAT,2.9594885040033,99.859766135603
1208042,1208,SEI KEPAYANG TIMUR,2.9558536520016,99.909495673053
1208050,1208,TANJUNG BALAI,3.0414378414996,99.812657783984
1208060,1208,SIMPANG EMPAT,2.9064840599998,99.758060282496
1208061,1208,TELUK DALAM,2.8155031805014,99.66692040805
1208070,1208,AIR BATU,2.8739716099998,99.632743545993
1208071,1208,SEI DADAP,2.9389134315033,99.643438155613
1208080,1208,BUNTU PANE,2.859333233,99.500158544997
1208081,1208,TINGGI RAJA,2.8376348705006,99.53798190902
1208082,1208,SETIA JANJI,2.9349109350007,99.488497819524
1208090,1208,MERANTI,3.0833079514906,99.619143529192
1208091,1208,PULO BANDRING,2.9942813894975,99.556464197915
1208092,1208,RAWANG PANCA ARGA,3.0592030105018,99.650123404055
1208100,1208,AIR JOMAN,3.0213187515025,99.717192817081
1208101,1208,SILAU LAUT,3.0926284995001,99.743789691995
1208160,1208,KISARAN BARAT,2.9856804720095,99.598031254809
1208170,1208,KISARAN TIMUR,2.9860927360023,99.644627940067
1209010,1209,SILIMAKUTA,2.9429558110005,98.643410663515
1209011,1209,PEMATANG SILIMAHUTA,2.9488369685023,98.570474146076
1209020,1209,PURBA,2.9069935070004,98.706408870512
1209021,1209,HARANGGAOL HORISON,2.8588208220037,98.684687545624
1209030,1209,DOLOK PARDAMEAN,,
1209040,1209,SIDAMANIK,2.8408205710011,98.952247561035
1209041,1209,PEMATANG SIDAMANIK,2.7924046605012,98.894479092542
1209050,1209,GIRSANG SIPANGAN BOLON,2.6790009199987,98.967791749951
1209060,1209,TANAH JAWA,2.8747990224997,99.19272569649
1209061,1209,HATONDUHAN,2.7373680514995,99.138549846981
1209070,1209,DOLOK PANRIBUAN,2.7829890000009,99.031939920035
1209080,1209,JORLANG HATARAN,2.8148809949976,99.014301539912
1209090,1209,PANEI,2.9004237944944,98.940968540805
1209091,1209,PANOMBEAN PANEI,2.9539887949983,98.98620687194
1209100,1209,RAYA,2.9794171609992,98.885464558974
1209110,1209,DOLOK SILAU,3.0874941299999,98.692380579996
1209120,1209,SILAU KAHEAN,3.1629921570016,98.868031842551
1209130,1209,RAYA KAHEAN,3.1132272755014,98.914350480542
1209140,1209,TAPIAN DOLOK,3.0708194220018,99.056689608065
1209150,1209,DOLOK BATU NANGGAR,3.118892677,99.159233894499
1209160,1209,SIANTAR,2.9387461724992,99.103015454973
1209161,1209,GUNUNG MALELA,3.0232745029953,99.201974049344
1209162,1209,GUNUNG MALIGAS,3.0454906549995,99.143776568482
1209170,1209,HUTABAYU RAJA,3.0165544309996,99.296709047483
1209171,1209,JAWA MARAJA BAH JAMBI,2.9639665565018,99.216619777558
1209180,1209,PEMATANG BANDAR,3.1034011334979,99.236457258939
1209181,1209,BANDAR HULUAN,3.1585324630013,99.220153661036
1209190,1209,BANDAR,3.161992733499,99.323876029971
1209191,1209,BANDAR MASILAM,3.250710641502,99.288690269061
1209200,1209,BOSAR MALIGAS,3.0293129919999,99.388770865994
1209210,1209,UJUNG PADANG,3.0037044274994,99.461419582479
1210030,1210,SIDIKALANG,2.7383904360047,98.316284179663
1210031,1210,BERAMPU,2.732710506506,98.250993128217
1210032,1210,SITINJO,2.7046257080024,98.36356528108
1210040,1210,PARBULUAN,2.6431884765016,98.467477637055
1210050,1210,SUMBUL,2.7529277600008,98.431220421521
1210051,1210,SILAHI SABUNGAN,2.7686359144999,98.524159095489
1210060,1210,SILIMA PUNGGA-PUNGGA,2.8567994699973,98.052685081904
1210061,1210,LAE PARIRA,2.7844275989983,98.179912580943
1210070,1210,SIEMPAT NEMPU,2.8121032715012,98.22679237254
1210080,1210,SIEMPAT NEMPU HULU,2.8196105955011,98.276977539031
1210090,1210,SIEMPAT NEMPU HILIR,2.8883056640001,98.058157195007
1210100,1210,TIGA LINGGA,2.8925115050019,98.250832400065
1210101,1210,GUNUNG SITEMBER,2.9384134700022,98.146869343069
1210110,1210,PEGAGAN HILIR,2.8581479010002,98.385471912508
1210120,1210,TANAH PINEM,3.007808411,98.166512128499
1211010,1211,MARDINGDING,3.2336134420002,98.007315149003
1211020,1211,LAUBALENG,3.1625708524988,98.066477779959
1211030,1211,TIGA BINANGA,3.0930482285021,98.220557015066
1211040,1211,JUHAR,2.9989271290007,98.296085843526
1211050,1211,MUNTE,3.0497967969983,98.370314786446
1211060,1211,KUTA BULUH,3.2018234945007,98.213387197521
1211070,1211,PAYUNG,3.1331278979888,98.368621322139
1211071,1211,TIGANDERKET,3.2028474435026,98.358181753579
1211080,1211,SIMPANG EMPAT,3.1424278080051,98.449037242161
1211081,1211,NAMAN TERAN,3.1981815425026,98.417313474579
1211082,1211,MERDEKA,3.2070497304965,98.486175962891
1211090,1211,KABANJAHE,3.1065882149974,98.453593057915
1211100,1211,BERASTAGI,3.1901451340073,98.521363164234
1211110,1211,TIGAPANAH,3.0814431754992,98.502357259978
1211111,1211,DOLAT RAYAT,3.1691800614921,98.542166046769
1211120,1211,MEREK,2.9580457945021,98.474104586568
1211130,1211,BARUSJAHE,3.1294518515007,98.583977098521
1212010,1212,GUNUNG MERIAH,3.1261874850015,98.665848874547
1212020,1212,SINEMBAH TANJUNG MUDA HULU,3.2520360149994,98.697070547481
1212030,1212,SIBOLANGIT,3.3093063305008,98.551363018022
1212040,1212,KUTALIMBARU,3.3991775774997,98.512400171995
1212050,1212,PANCUR BATU,3.4867725299989,98.581290653965
1212060,1212,NAMO RAMBE,3.446073951498,98.63322695993
1212070,1212,BIRU-BIRU,3.3847815149971,98.658045899915
1212080,1212,SINEMBAH TANJUNG MUDA HILIR,3.3748789950012,98.715313980036
1212090,1212,BANGUN PURBA,3.3712984390022,98.812227420067
1212190,1212,GALANG,3.424826203003,98.872830636582
1212200,1212,TANJUNG MORAWA,3.5290340100001,98.804577059998
1212210,1212,PATUMBAK,3.4855348440126,98.723127345367
1212220,1212,DELI TUA,3.4999300210251,98.689505784698
1212230,1212,SUNGGAL,3.6019484734986,98.588594098961
1212240,1212,HAMPARAN PERAK,3.7767574189996,98.605747964986
1212250,1212,LABUHAN DELI,3.7766260830005,98.674707736513
1212260,1212,PERCUT SEI TUAN,3.650536642,98.741788366007
1212270,1212,BATANG KUIS,3.6289154699927,98.817387399293
1212280,1212,PANTAI LABU,3.6677043849952,98.875917177874
1212290,1212,BERINGIN,3.6242205299967,98.877302459905
1212300,1212,LUBUK PAKAM,3.5678619900006,98.885466086527
1212310,1212,PAGAR MERBAU,3.5654495939982,98.894612389957
1213010,1213,BOHOROK,3.4347749739996,98.073878797989
1213011,1213,SIRAPIT,3.5708651064988,98.306279516964
1213020,1213,SALAPIAN,3.4343819959986,98.307321580961
1213021,1213,KUTAMBARU,3.3323775655005,98.278937581016
1213030,1213,SEI BINGAI,3.3997217380004,98.437465425012
1213040,1213,KUALA,3.4330623794998,98.390233625995
1213050,1213,SELESAI,3.6060537644994,98.377968365478
1213060,1213,BINJAI,3.6599818129929,98.4636523523
1213070,1213,STABAT,3.7331941755042,98.456615534605
1213080,1213,WAMPU,3.7098771904987,98.350754822465
1213090,1213,BATANG SERANGAN,3.7011320620005,98.048261638013
1213100,1213,SAWIT SEBERANG,3.8214515299999,98.252035644995
1213110,1213,PADANG TUALANG,3.8015272665006,98.327834001513
1213120,1213,HINAI,3.8407323204985,98.425442859464
1213130,1213,SECANGGANG,3.8598901554999,98.565048542494
1213140,1213,TANJUNG PURA,3.9645244264983,98.47947524096
1213150,1213,GEBANG,3.9837145915008,98.376495621014
1213160,1213,BABALAN,4.0242692810054,98.342488100627
1213170,1213,SEI LEPAN,3.9061437850001,98.156996308999
1213180,1213,BRANDAN BARAT,4.0306461030036,98.254975291588
1213190,1213,BESITANG,3.9832383375002,98.061818721
1213200,1213,PANGKALAN SUSU,4.1624843005031,98.21692711307
1213201,1213,PEMATANG JAYA,4.1924011699988,98.160148235471
1214010,1214,HIBALA,-0.45987564549996,98.444929164002
1214011,1214,TANAH MASA,-0.27513284499994,98.461871376499
1214020,1214,PULAU-PULAU BATU,-0.048230206999936,98.313963000496
1214021,1214,PULAU-PULAU BATU TIMUR,-0.0009916614999208,98.681023927003
1214022,1214,SIMUK,-0.083669554999961,97.867972835488
1214023,1214,PULAU-PULAU BATU BARAT,-0.31900840299993,98.278318295
1214024,1214,PULAU-PULAU BATU UTARA,-0.016217392999911,98.3358008505
1214030,1214,TELUK DALAM,0.58273494150006,97.834961299503
1214031,1214,FANAYAMA,0.62617992150011,97.791089841007
1214032,1214,TOMA,0.66543397350017,97.875752088529
1214033,1214,MANIAMOLO,0.66128981550052,97.730074827572
1214034,1214,MAZINO,0.70565655749979,97.824101950455
1214035,1214,LUAHAGUNDRE MANIAMOLO,0.58892698400023,97.727982443033
1214036,1214,ONOLALU,0.63826606600043,97.832481715056
1214040,1214,AMANDRAYA,0.73267961100015,97.696056229014
1214041,1214,ARAMO,0.73518548599976,97.734867105464
1214042,1214,ULUSUSUA,0.76321644700002,97.697496147001
1214050,1214,LAHUSA,0.75878491550059,97.832250323068
1214051,1214,SIDUAORI,0.83603855800023,97.836616909511
1214052,1214,SOMAMBAWA,0.8323144465002,97.876567588501
1214060,1214,GOMO,0.8807227655002,97.786912618014
1214061,1214,SUSUA,0.79062624750035,97.759999292541
1214062,1214,MAZO,0.8063239480003,97.78402631952
1214063,1214,UMBUNASI,0.92384215350124,97.734330695623
1214064,1214,IDANOTAE,0.89477767049994,97.810567547992
1214065,1214,ULUIDANOTAE,0.9092130850006,97.769378715552
1214066,1214,BORONADU,0.85908392699986,97.742100419486
1214070,1214,LOLOMATUA,0.93376481699935,97.64457523243
1214071,1214,ULUNOYO,0.89041862149997,97.678810555487
1214072,1214,HURUNA,0.9875415175,97.640537786992
1214080,1214,LOLOWA'U,0.88452772599971,97.580920413457
1214081,1214,HILIMEGAI,0.85413805699973,97.631837090968
1214082,1214,OOU,0.81836753949984,97.642335833474
1214083,1214,ONOHAZUMBA,0.9596177590005,97.591428574544
1214084,1214,HILISALAWAAHE,0.9640820110005,97.56189191603
1215010,1215,PAKKAT,2.1575926230004,98.439660217014
1215020,1215,ONAN GANJANG,2.1084121635004,98.624179805018
1215030,1215,SIJAMA POLANG,2.1331463390006,98.71780902653
1215040,1215,DOLOK SANGGUL,2.2559789965002,98.702700868006
1215050,1215,LINTONG NIHUTA,2.2619481550006,98.863394748524
1215060,1215,PARANGINAN,2.2889537739992,98.928933327467
1215070,1215,BAKTI RAJA,2.3347540539966,98.824505309857
1215080,1215,POLLUNG,2.3545120234996,98.698197958482
1215090,1215,PARLILITAN,2.3590857314999,98.428840982993
1215100,1215,TARA BINTANG,2.2693425599999,98.386778731494
1216010,1216,SALAK,2.4563142309994,98.287496165968
1216011,1216,SITELLU TALI URANG JEHE,2.6660731154996,98.169890863479
1216012,1216,PAGINDAR,2.4156064150003,98.166972805512
1216013,1216,SITELLU TALI URANG JULU,2.5027377770029,98.380048932623
1216014,1216,PERGETTENG-GETTENG SENGKUT,2.5433029325021,98.230887144577
1216020,1216,KERAJAAN,2.6244578769997,98.266414735487
1216021,1216,TINADA,2.6084708035007,98.326787394027
1216022,1216,SIEMPAT RUBE,2.5775673100008,98.402115226027
1217010,1217,SIANJUR MULA MULA,2.6499213275005,98.622300665019
1217020,1217,HARIAN,2.4943815139991,98.576174078466
1217030,1217,SITIO-TIO,2.4342790934992,98.770846385961
1217040,1217,ONAN RUNGGU,2.5060052030029,98.945099804612
1217050,1217,NAINGGOLAN,2.4861657934995,98.893051231979
1217060,1217,PALIPI,2.5298432500007,98.813265829528
1217070,1217,RONGGUR NIHUTA,2.6156219695059,98.794955399716
1217080,1217,PANGURURAN,2.6209511499948,98.712300945297
1217090,1217,SIMANINDO,2.6513047640017,98.800344341563
1218010,1218,KOTARIH,3.290355154497,98.847697740907
1218011,1218,SILINDA,3.2642843914958,98.79783754137
1218012,1218,BINTANG BAYU,3.2940834929992,98.926428371474
1218020,1218,DOLOK MASIHUL,3.3155582055009,99.030302099025
1218021,1218,SERBAJADI,3.4083542750003,98.955304318507
1218030,1218,SIPISPIS,3.1547728850009,99.014433815527
1218040,1218,DOLOK MERAWAN,3.1831090129995,99.128446381987
1218050,1218,TEBINGTINGGI,3.3229647129983,99.151657568449
1218051,1218,TEBING SYAHBANDAR,3.297051664,99.206391601995
1218060,1218,BANDAR KHALIPAH,3.4219254944951,99.261455647356
1218070,1218,TANJUNG BERINGIN,3.4859685874971,99.209846732914
1218080,1218,SEI RAMPAH,3.4585411244992,99.076893591978
1218081,1218,SEI BAMBAN,3.4267259140001,99.145288629008
1218090,1218,TELUK MENGKUDU,3.5364034470011,99.136243722035
1218100,1218,PERBAUNGAN,3.5475223979996,99.01986370249
1218101,1218,PEGAJAHAN,3.4836485974995,98.986503736487
1218110,1218,PANTAI CERMIN,3.6305225559992,99.004903062482
1219010,1219,SEI BALAI,3.0908784585034,99.579538429609
1219020,1219,TANJUNG TIRAM,3.1715241549982,99.662676025443
1219030,1219,TALAWI,3.1756364189982,99.531753429939
1219040,1219,LIMAPULUH,3.2226141620008,99.456184106023
1219050,1219,AIR PUTIH,3.2783885910042,99.405828808629
1219060,1219,SEI SUKA,3.2934874519992,99.350799721475
1219070,1219,MEDANG DERAS,3.3814686750043,99.364571165627
1220010,1220,BATANG ONANG,1.3323430969999,99.487369552988
1220020,1220,PADANG BOLAK JULU,1.4963984070002,99.477191930011
1220030,1220,PORTIBI,1.4056495255003,99.665388909516
1220040,1220,PADANG BOLAK,1.5393488255001,99.653030386502
1220041,1220,PADANG BOLAK TENGGARA,,
1220050,1220,SIMANGAMBAT,1.5410234265,100.1214257205
1220051,1220,UJUNG BATU,,
1220060,1220,HALONGONAN,1.6366896615001,99.785442263006
1220061,1220,HALONGONAN TIMUR,,
1220070,1220,DOLOK,1.8423845100001,99.692333475001
1220080,1220,DOLOK SIGOMPULON,1.9700513505006,99.700502546529
1220090,1220,HULU SIHAPAS,1.4580908169976,99.426889496334
1221010,1221,SOSOPAN,1.1978603964998,99.543907119486
1221020,1221,ULU BARUMUN,1.0664507985002,99.635120547515
1221030,1221,BARUMUN,1.0097445625002,99.697009939515
1221031,1221,BARUMUN SELATAN,0.96148010200011,99.703476292005
1221040,1221,LUBUK BARUMUN,1.1620463615001,99.780410725003
1221050,1221,SOSA,1.0148044845001,99.875278546006
1221060,1221,BATANG LUBU SUTAM,0.91289101900007,100.0402094405
1221070,1221,HUTA RAJA TINGGI,1.120559882,100.04340744349
1221080,1221,HURISTAK,1.3943886915,99.922859542
1221090,1221,BARUMUN TENGAH,1.3650444834997,99.759485881973
1221091,1221,AEK NABARA BARUMUN,1.2679674894999,99.762874652988
1221092,1221,SIHAPAS BARUMUN,1.3172160975015,99.667487588618
1222010,1222,SUNGAI KANAN,1.727204532,99.8728481115
1222020,1222,TORGAMBA,1.7256099430001,100.226393777
1222030,1222,KOTA PINANG,1.88530041,100.086755508
1222040,1222,SILANGKITANG,1.8749218814999,99.937382189492
1222050,1222,KAMPUNG RAKYAT,2.0444987255002,100.18989647801
1223010,1223,NA IX-X,2.1617897215,99.660487876994
1223020,1223,MARBAU,2.2502819709997,99.867794566487
1223030,1223,AEK KUO,2.3884509714986,99.863981717939
1223040,1223,AEK NATAS,2.2871256975004,99.614817035016
1223050,1223,KUALUH SELATAN,2.4428097449998,99.69381954699
1223060,1223,KUALUH HILIR,2.5743161645009,99.952231825032
1223070,1223,KUALUH HULU,2.5459052935004,99.649946202515
1223080,1223,KUALUH LEIDONG,2.7276815615004,99.910784322516
1224010,1224,TUGALA OYO,1.1305118895001,97.417283682505
1224020,1224,ALASA,1.2049379985,97.405753581489
1224030,1224,ALASA TALU MUZOI,1.2454533915003,97.454868960021
1224040,1224,NAMOHALU ESIWA,1.3333438294999,97.415571911496
1224050,1224,SITOLU ORI,1.4013267034994,97.456587221956
1224060,1224,TUHEMBERUA,1.4526208335003,97.462591389024
1224070,1224,SAWO,1.4887933335002,97.384090000007
1224080,1224,LOTU,1.4236003219996,97.361876159472
1224090,1224,LAHEWA TIMUR,1.3682182875003,97.307566845517
1224100,1224,AFULU,1.2435418949999,97.212675577484
1224110,1224,LAHEWA,1.3608168530002,97.171973161013
1225010,1225,SIROMBU,0.90331500000002,97.416066662997
1225020,1225,LAHOMI,0.97531359399993,97.506665374489
1225030,1225,ULU MORO O,1.0276550539993,97.554507782431
1225040,1225,LOLOFITU MOI,1.0627633649998,97.609186205478
1225050,1225,MANDREHE UTARA,1.1127069124995,97.521633062461
1225060,1225,MANDREHE,1.0501170514996,97.507763138968
1225070,1225,MANDREHE BARAT,1.0143162914997,97.436635093968
1225080,1225,MORO O,1.077502222,97.423496734503
1271010,1271,SIBOLGA UTARA,1.7459733599945,98.785244946679
1271020,1271,SIBOLGA KOTA,1.7253803119983,98.774261261419
1271030,1271,SIBOLGA SELATAN,1.730746963011,98.799047527618
1271031,1271,SIBOLGA SAMBAS,1.732668467005,98.785442538798
1272010,1272,DATUK BANDAR,2.9468300504934,99.778174959787
1272011,1272,DATUK BANDAR TIMUR,2.9458868849923,99.816369238743
1272020,1272,TANJUNG BALAI SELATAN,2.9631106924942,99.802562883776
1272030,1272,TANJUNG BALAI UTARA,2.9701283691031,99.802467988252
1272040,1272,SEI TUALANG RASO,2.9890860995044,99.787276169144
1272050,1272,TELUK NIBUNG,2.9991613300011,99.80000806702
1273010,1273,SIANTAR MARIHAT,2.9469680539654,99.082645880845
1273011,1273,SIANTAR MARIMBUN,2.9191156319924,99.051244244735
1273020,1273,SIANTAR SELATAN,2.9482160430091,99.057223565822
1273030,1273,SIANTAR BARAT,2.9556539369426,99.058462171576
1273040,1273,SIANTAR UTARA,2.9697332580581,99.063664013941
1273050,1273,SIANTAR TIMUR,2.9619967550235,99.07968535177
1273060,1273,SIANTAR MARTOBA,2.9957821794886,99.081828572619
1273061,1273,SIANTAR SITALASARI,2.9708369555011,99.03944530452
1274010,1274,PADANG HULU,3.3008541695011,99.139380911032
1274011,1274,TEBING TINGGI KOTA,3.3279362318892,99.160696508202
1274020,1274,RAMBUTAN,3.3552882175272,99.1674998903
1274021,1274,BAJENIS,3.3318631620417,99.135361419754
1274030,1274,PADANG HILIR,3.3303361494666,99.176645019015
1275010,1275,MEDAN TUNTUNGAN,3.5193267620006,98.62597949652
1275020,1275,MEDAN JOHOR,3.5275211795233,98.668566865144
1275030,1275,MEDAN AMPLAS,3.5358351435044,98.717995689612
1275040,1275,MEDAN DENAI,3.5715997185238,98.722873745134
1275050,1275,MEDAN AREA,3.581387576924,98.700634339888
1275060,1275,MEDAN KOTA,3.5730847390571,98.695760360574
1275070,1275,MEDAN MAIMUN,3.5654403845312,98.680740249385
1275080,1275,MEDAN POLONIA,3.5631180919735,98.673424660768
1275090,1275,MEDAN BARU,3.5659848429938,98.660571447329
1275100,1275,MEDAN SELAYANG,3.5531868885001,98.634212593009
1275110,1275,MEDAN SUNGGAL,3.5834437804717,98.627585939219
1275120,1275,MEDAN HELVETIA,3.6073712609841,98.631827151553
1275130,1275,MEDAN PETISAH,3.5927105360574,98.661202474075
1275140,1275,MEDAN BARAT,3.6082974704926,98.664578507303
1275150,1275,MEDAN TIMUR,3.6141922659887,98.681734572196
1275160,1275,MEDAN PERJUANGAN,3.6038762745287,98.694329198281
1275170,1275,MEDAN TEMBUNG,3.6086880145214,98.71743855208
1275180,1275,MEDAN DELI,3.6626346375128,98.679497483822
1275190,1275,MEDAN LABUHAN,3.7169995370076,98.701195804688
1275200,1275,MEDAN MARELAN,3.7150392964923,98.652142316298
1275210,1275,MEDAN BELAWAN,3.7669506090189,98.672592431502
1276010,1276,BINJAI SELATAN,3.5655552710104,98.472623374295
1276020,1276,BINJAI KOTA,3.6029182794804,98.475911663452
1276030,1276,BINJAI TIMUR,3.5986689919904,98.513095312231
1276040,1276,BINJAI UTARA,3.6408825894832,98.495443509534
1276050,1276,BINJAI BARAT,3.6251624745008,98.466295730528
1277010,1277,PADANGSIDIMPUAN TENGGARA,1.3363888579971,99.31636947828
1277020,1277,PADANGSIDIMPUAN SELATAN,1.3734277625048,99.272549682855
1277030,1277,PADANGSIDIMPUAN BATUNADUA,1.4055015275003,99.298058561021
1277040,1277,PADANGSIDIMPUAN UTARA,1.3964563504986,99.257680046883
1277050,1277,PADANGSIDIMPUAN HUTAIMBARU,1.4254603410025,99.244777150659
1277051,1277,PADANGSIDIMPUAN ANGKOLA JULU,1.4427471140016,99.261674837612
1278010,1278,GUNUNGSITOLI IDANOI,1.1536541665001,97.638192222499
1278020,1278,GUNUNGSITOLI SELATAN,1.2154555554997,97.621463267477
1278030,1278,GUNUNGSITOLI BARAT,1.224368521499,97.586441944423
1278040,1278,GUNUNG SITOLI,1.2861411110013,97.602340387597
1278050,1278,GUNUNGSITOLI ALO OA,1.3078578364984,97.535638865884
1278060,1278,GUNUNGSITOLI UTARA,1.3642054919988,97.527059921912
1301011,1301,PAGAI SELATAN,-3.4167887954999,100.599104326
1301012,1301,SIKAKAP,-2.7718583145003,100.14429346401
1301013,1301,PAGAI UTARA,-2.6773458284998,100.03976200249
1301021,1301,SIPORA SELATAN,-2.2485684809998,99.731560864492
1301022,1301,SIPORA UTARA,-2.1285399474999,99.612924852501
1301030,1301,SIBERUT SELATAN,-1.4921854795,99.076820991002
1301031,1301,SEBERUT BARAT DAYA,-1.6955113225,99.068990641502
1301032,1301,SIBERUT TENGAH,-1.3735173474999,99.045416232997
1301040,1301,SIBERUT UTARA,-1.1794249845,98.905633687002
1301041,1301,SIBERUT BARAT,-1.2291158979999,98.778783065
1302011,1302,SILAUT,-2.3617169160002,101.08161702601
1302012,1302,LUNANG,-2.2370985874997,101.11865198349
1302020,1302,BASA AMPEK BALAI TAPAN,-2.1054883760004,101.07589076302
1302021,1302,RANAH AMPEK HULU TAPAN,-2.1442877265001,101.09585292901
1302030,1302,PANCUNG SOAL,-2.0914250699999,101.014425595
1302031,1302,AIRPURA,-1.9193171504999,101.007592382
1302040,1302,LINGGO SARI BAGANTI,-1.8219518000001,100.85052256551
1302050,1302,RANAH PESISIR,-1.6706076284999,100.91029224
1302060,1302,LENGAYANG,-1.5738051695,100.8182793425
1302070,1302,SUTERA,-1.4691446924999,100.708430382
1302080,1302,BATANG KAPAS,-1.3790861539999,100.622530611
1302090,1302,IV JURAI,-1.2829893049999,100.644736734
1302100,1302,BAYANG,-1.2656203000003,100.53250487153
1302101,1302,IV  NAGARI BAYANG UTARA,-1.1447632674998,100.64680914699
1302110,1302,KOTO XI TARUSAN,-1.1369897035,100.440825271
1303040,1303,PANTAI CERMIN,-1.2383858535002,100.89336254502
1303050,1303,LEMBAH GUMANTI,-1.087066696,100.8190799495
1303051,1303,HILIRAN GUMANTI,-1.1528377864999,100.92893423849
1303060,1303,PAYUNG SEKAKI,-0.88358488399992,100.8383096675
1303061,1303,TIGO LURAH,-1.0271189874999,101.036543122
1303070,1303,LEMBANG JAYA,-0.96295165999989,100.7167408525
1303071,1303,DANAU KEMBAR,-1.0492973129997,100.68762466198
1303080,1303,GUNUNG TALANG,-0.96303329499994,100.618646956
1303090,1303,BUKIT SUNDI,-0.88181059699995,100.721634458
1303100,1303,IX KOTO SUNGAI LASI,-0.78938522950024,100.75988783504
1303110,1303,KUBUNG,-0.81735229499992,100.606122741
1303120,1303,X KOTO DIATAS,-0.64056554849994,100.646939543
1303130,1303,X KOTO SINGKARAK,-0.69046020549993,100.55426902551
1303140,1303,JUNJUNG SIRIH,-0.68037623499995,100.4967396025
1304050,1304,KAMANG BARU,-0.78093487199997,101.3146551615
1304060,1304,TANJUNG GADANG,-0.84747841799997,101.141388613
1304070,1304,SIJUNJUNG,-0.62265421499997,101.0588163645
1304071,1304,LUBUK TAROK,-0.79385771249999,101.0024402435
1304080,1304,IV NAGARI,-0.72531205749986,100.88621805998
1304090,1304,KUPITAN,-0.71817467649987,100.83225180348
1304100,1304,KOTO TUJUH,-0.59915989850008,100.85605570652
1304110,1304,SUMPUR KUDUS,-0.45376099349997,100.941799335
1305010,1305,SEPULUH KOTO,-0.47473423849992,100.38537584599
1305020,1305,BATIPUH,-0.48443025999998,100.4662142205
1305021,1305,BATIPUH SELATAN,-0.58717144749992,100.4568445515
1305030,1305,PARIANGAN,-0.44560950999993,100.50289572799
1305040,1305,RAMBATAN,-0.53948974650001,100.57540893552
1305050,1305,LIMA KAUM,-0.45685159749983,100.56787980247
1305060,1305,TANJUNG EMAS,-0.48015895000002,100.67787557851
1305070,1305,PADANG GANTING,-0.52640189699998,100.71714072501
1305080,1305,LINTAU BUO,-0.49378527099996,100.7820202735
1305081,1305,LINTAU BUO UTARA,-0.39493282549997,100.744658907
1305090,1305,SUNGAYANG,-0.36963722249999,100.62102905552
1305100,1305,SUNGAI TARAB,-0.40351440849992,100.539532072
1305110,1305,SALIMPAUNG,-0.34439680299995,100.5430799575
1305111,1305,TANJUNG BARU,-0.32226515099993,100.53115056699
1306010,1306,BATANG ANAI,-0.76044689900015,100.32147794202
1306020,1306,LUBUK ALUNG,-0.68476019599996,100.354221354
1306021,1306,SINTUK TOBOH GADANG,-0.67176454800055,100.2543247851
1306030,1306,ULAKAN TAPAKIS,-0.70070056400034,100.21393725356
1306040,1306,NAN SABARIS,-0.65130519749974,100.19207478995
1306050,1306,2 X 11 ENAM LINGKUNG,-0.58851012950007,100.28472274351
1306051,1306,ENAM LINGKUNG,-0.62700126350013,100.26955630652
1306052,1306,2 X 11 KAYU TANAM,-0.56567894799988,100.35324179899
1306060,1306,VII KOTO SUNGAI SARIAK,-0.58402731699985,100.19767083649
1306061,1306,PATAMUAN,-0.50603582249993,100.26607602849
1306062,1306,PADANG SAGO,-0.53554933200012,100.20802954804
1306070,1306,V KOTO KP DALAM,-0.48750618249997,100.145674489
1306071,1306,V KOTO TIMUR,-0.49302562900002,100.18857292451
1306080,1306,SUNGAI LIMAU,-0.51390394499991,100.0752548445
1306081,1306,BATANG GASAN,-0.44263781349989,100.01632022849
1306090,1306,SUNGAI GERINGGING,-0.43579644349999,100.108851103
1306100,1306,IV KOTO AUR MALINTANG,-0.36992737049996,100.0690896395
1307010,1307,TANJUNG MUTIARA,-0.29774533549992,99.883933604002
1307020,1307,LUBUK BASUNG,-0.29353602449993,100.0130547625
1307021,1307,AMPEK NAGARI,-0.19770672199998,99.996245515004
1307030,1307,TANJUNG RAYA,-0.31022927849994,100.1804029835
1307040,1307,MATUR,-0.28421548949995,100.28642163149
1307050,1307,IV KOTO,-0.3338514954999,100.31554628949
1307051,1307,MALALAK,-0.41207462000005,100.27369648701
1307061,1307,BANUHAMPU,-0.35370646499996,100.3729387935
1307062,1307,SUNGAI PUA,-0.3624756479999,100.40236300098
1307070,1307,AMPEK ANGKEK,-0.28993816600002,100.42519940352
1307071,1307,CANDUANG,-0.33498037649995,100.45054993599
1307080,1307,BASO,-0.28054508999993,100.4859980175
1307090,1307,TILATANG KAMANG,-0.2439258739999,100.38266804751
1307091,1307,KAMANG MAGEK,-0.19328162899996,100.4134622635
1307100,1307,PALEMBAYAN,-0.16624650349993,100.1653146155
1307110,1307,PALUPUH,-0.14188883049992,100.28570544999
1308010,1308,PAYAKUMBUH,-0.17308090399995,100.58760633701
1308011,1308,AKABILURU,-0.22447645649997,100.5204316
1308020,1308,LUAK,-0.27121036949998,100.68097480451
1308021,1308,LAREH SAGO HALABAN,-0.28846532050002,100.765368494
1308022,1308,SITUJUAH LIMO NAGARI,-0.308755351,100.62311716401
1308030,1308,HARAU,-0.11655942899991,100.689029729
1308040,1308,GUGUAK,-0.12718418449993,100.5188451645
1308041,1308,MUNGKA,-0.058683256999963,100.578256613
1308050,1308,SULIKI,-0.11550970299997,100.4482610735
1308051,1308,BUKIK BARISAN,0.02387290500005,100.4432844605
1308060,1308,GUNUANG OMEH,-0.037630247999924,100.341869922
1308070,1308,KAPUR IX,0.23357855050009,100.4653046645
1308080,1308,PANGKALAN KOTO BARU,0.10650919350008,100.683767449
1309070,1309,BONJOL,-0.0039801964999687,100.244408325
1309071,1309,TIGO NAGARI,-0.0057875789999425,100.0636443535
1309072,1309,SIMPANG ALAHAN MATI,-0.0093284239999469,100.163668439
1309080,1309,LUBUK SIKAPING,0.16476435700003,100.1367748515
1309100,1309,DUA KOTO,0.37051334200003,99.890556170005
1309110,1309,PANTI,0.36065669100006,100.090493357
1309111,1309,PADANG GELUGUR,0.43725895150001,100.03646157149
1309121,1309,RAO,0.56542776600008,99.98239111801
1309122,1309,MAPAT TUNGGUL,0.66639478099998,100.14809439799
1309123,1309,MAPAT TUNGGUL SELATAN,0.31919189400004,100.223741279
1309124,1309,RAO SELATAN,0.53052693500008,100.044662139
1309125,1309,RAO UTARA,0.73960121900008,99.975044989502
1310010,1310,SANGIR,-1.5759043974999,101.291962756
1310020,1310,SANGIR JUJUAN,-1.4314787989999,101.314472917
1310021,1310,SANGIR BALAI JANGGO,-1.4553524175,101.52395506901
1310030,1310,SANGIR BATANG HARI,-1.2013847839999,101.33334653199
1310040,1310,SUNGAI PAGU,-1.4925419250001,101.09028082151
1310041,1310,PAUAH DUO,-1.5552122645002,101.11429718902
1310050,1310,KOTO PARIK GADANG DIATEH,-1.3070808635,101.0526385065
1311010,1311,SUNGAI RUMBAI,-1.2205457159998,101.75008716949
1311011,1311,KOTO BESAR,-1.2292885279999,101.560669128
1311012,1311,ASAM JUJUHAN,-1.503581145,101.57562349301
1311020,1311,KOTO BARU,-1.1215198755,101.6812683895
1311021,1311,KOTO SALAK,-1.1571415115,101.81863564201
1311022,1311,TIUMANG,-1.0533136919996,101.74399212346
1311023,1311,PADANG LAWEH,-1.0350410469997,101.77563581497
1311030,1311,SITIUNG,-1.0062959655,101.628655244
1311031,1311,TIMPEH,-0.90287379949995,101.588541431
1311040,1311,PULAU PUNJUNG,-1.004076732,101.502055463
1311041,1311,IX KOTO,-1.0286808305,101.296245599
1312010,1312,SUNGAI BEREMAS,0.25315645800006,99.323396435499
1312020,1312,RANAH BATAHAN,0.440638009,99.467295909494
1312030,1312,KOTO BALINGKA,0.32033799450005,99.513846737003
1312040,1312,SUNGAI AUR,0.28043440950006,99.603626142002
1312050,1312,LEMBAH MALINTANG,0.35039350050009,99.588332519002
1312060,1312,GUNUNG TULEH,0.31986282750007,99.76383633751
1312070,1312,TALAMAU,0.19347453350004,99.927744351999
1312080,1312,PASAMAN,0.14124621700004,99.8088885705
1312090,1312,LUHAK NAN DUO,0.029553848000026,99.825212141996
1312100,1312,SASAK RANAH PASISIE,0.051207612500035,99.6536821215
1312110,1312,KINALI,-0.058699011499979,99.896939958997
1371010,1371,BUNGUS TELUK KABUNG,-1.0630654585,100.3268627215
1371020,1371,LUBUK KILANGAN,-0.94888593349998,100.492344613
1371030,1371,LUBUK BEGALUNG,-0.9923166145001,100.40493927551
1371040,1371,PADANG SELATAN,-0.99297075499981,100.26152931699
1371050,1371,PADANG TIMUR,-0.9452521354992,100.38060951242
1371060,1371,PADANG BARAT,-0.94467696749917,100.35697746243
1371070,1371,PADANG UTARA,-0.91298865749794,100.36012268029
1371080,1371,NANGGALO,-0.89835114300047,100.36907442755
1371090,1371,KURANJI,-0.89270019499971,100.41662216198
1371100,1371,PAUH,-0.8697570319999,100.47940731049
1371110,1371,KOTO TANGAH,-0.81061458600003,100.30410562301
1372010,1372,LUBUK SIKARAH,-0.79183472399982,100.61043117548
1372020,1372,TANJUNG HARAPAN,-0.76658528499882,100.66057852336
1373010,1373,SILUNGKANG,-0.73352875700003,100.78460773752
1373020,1373,LEMBAH SEGAR,-0.69269761050043,100.76312725557
1373030,1373,BARANGIN,-0.6619399154998,100.73633617598
1373040,1373,TALAWI,-0.60889874599972,100.75570097296
1374010,1374,PADANG PANJANG BARAT,-0.46777019750043,100.38638898561
1374020,1374,PADANG PANJANG TIMUR,-0.47172131349985,100.41814926199
1375010,1375,GUGUK PANJANG,-0.30472572149992,100.36690160248
1375020,1375,MANDIANGIN KOTO SELAYAN,-0.29066339049994,100.36499290801
1375030,1375,AUR BIRUGO TIGO BALEH,-0.31459201650018,100.38514723157
1376010,1376,PAYAKUMBUH BARAT,-0.23561860699996,100.61039286301
1376011,1376,PAYAKUMBUH SELATAN,-0.25787453749992,100.62329319599
1376020,1376,PAYAKUMBUH TIMUR,-0.22278944349995,100.65927353398
1376030,1376,PAYAKUMBUH UTARA,-0.20851536149999,100.63950003401
1376031,1376,LAMPOSI TIGO NAGORI,-0.20553279299999,100.60644583951
1377010,1377,PARIAMAN SELATAN,-0.6391308840003,100.15569584957
1377020,1377,PARIAMAN TENGAH,-0.63314678000012,100.12436680004
1377021,1377,PARIAMAN TIMUR,-0.60419428500046,100.14545444309
1377030,1377,PARIAMAN UTARA,-0.57939955200004,100.11286163651
1401010,1401,KUANTAN MUDIK,-0.71739427099989,101.533711138
1401011,1401,HULU KUANTAN,-0.58104200299992,101.333447512
1401012,1401,GUNUNG TOAR,-0.60483477899994,101.5388740075
1401013,1401,PUCUK RANTAU,-0.82715391199997,101.799642855
1401020,1401,SINGINGI,-0.45610320899997,101.265328525
1401021,1401,SINGINGI HILIR,-0.19691562049993,101.3042174185
1401030,1401,KUANTAN TENGAH,-0.54866997649995,101.611113031
1401031,1401,SENTAJO RAYA,-0.40676442899994,101.555450722
1401040,1401,BENAI,-0.4907965384999,101.67162041749
1401050,1401,KUANTAN HILIR,-0.40964511349992,101.77877101449
1401051,1401,PANGEAN,-0.48611551999992,101.686048695
1401052,1401,LOGAS TANAH DARAT,-0.24972392549991,101.6043359795
1401053,1401,KUANTAN HILIR SEBERANG,-0.54013155949996,101.784838813
1401060,1401,CERENTI,-0.4929831689999,101.86234557949
1401061,1401,INUMAN,-0.49971593499991,101.80021282551
1402010,1402,PERANAP,-0.650421913,102.000007072
1402011,1402,BATANG PERANAP,-0.71483066299993,101.8753316725
1402020,1402,SEBERIDA,-0.57593627349995,102.4658168595
1402021,1402,BATANG CENAKU,-0.77167115399999,102.2293243065
1402022,1402,BATANG GANSAL,-0.78482061749996,102.5008506685
1402030,1402,KELAYANG,-0.44078643049993,102.1001101725
1402031,1402,RAKIT KULIM,-0.62733420799995,102.187771679
1402040,1402,PASIR PENYU,-0.378358573,102.268179016
1402041,1402,LIRIK,-0.28498770849999,102.2703698695
1402042,1402,SUNGAI LALA,-0.41348962349998,102.264919499
1402043,1402,LUBUK BATU JAYA,-0.34146234599991,102.11242857549
1402050,1402,RENGAT BARAT,-0.33194219099995,102.425643148
1402060,1402,RENGAT,-0.20637967599996,102.51743036
1402061,1402,KUALA CENAKU,-0.19047810499998,102.658734987
1403010,1403,KERITANG,-0.70847337999994,102.8436229
1403011,1403,KEMUNING,-0.93507163099997,102.736750672
1403020,1403,RETEH,-0.71007825699999,103.24106777351
1403021,1403,SUNGAI BATANG,-0.61957176999995,103.23466334
1403030,1403,ENOK,-0.48553359849993,103.1252530595
1403040,1403,TANAH MERAH,-0.47076852949995,103.394682088
1403050,1403,KUALA INDRAGIRI,-0.32825411099997,103.5094431065
1403051,1403,CONCONG,-0.29466821049991,103.618644829
1403060,1403,TEMBILAHAN,-0.3496730104999,103.177286949
1403061,1403,TEMBILAHAN HULU,-0.38037235299998,103.0788081155
1403070,1403,TEMPULING,-0.39255155599995,102.9152231265
1403071,1403,KEMPAS,-0.43583622999994,102.8357370425
1403080,1403,BATANG TUAKA,-0.29160909099992,103.1452971015
1403090,1403,GAUNG ANAK SERKA,-0.19662661099995,103.1531893955
1403100,1403,GAUNG,-0.052697979499942,103.063035309
1403110,1403,MANDAH,0.092463389500016,103.3250421925
1403120,1403,KATEMAN,0.23330864750003,103.6314463275
1403121,1403,PELANGIRAN,0.21903904200007,103.3438640685
1403122,1403,TELUK BELENGKONG,0.31324156300003,103.3354378805
1403123,1403,PULAU BURUNG,0.41950974650004,103.3999234535
1404010,1404,LANGGAM,0.04051489500007,101.722313631
1404011,1404,PANGKALAN KERINCI,0.38180165200003,101.83745276299
1404012,1404,BANDAR SEIKIJANG,0.42357616150005,101.691481575
1404020,1404,PANGKALAN KURAS,0.032173406500052,101.8735166585
1404021,1404,UKUI,-0.21735971649994,101.98677643
1404022,1404,PANGKALAN LESUNG,-0.0095459824999629,102.1315775555
1404030,1404,BUNUT,0.29193612500005,102.1186025475
1404031,1404,PELALAWAN,0.43827594300009,102.111756726
1404032,1404,BANDAR PETALANGAN,0.14863074800002,102.1910396515
1404040,1404,KUALA KAMPAR,0.57005567500004,103.1245257715
1404041,1404,KERUMUTAN,0.010421733500029,102.356466645
1404042,1404,TELUK MERANTI,0.38797300000001,102.719851981
1405010,1405,MINAS,0.80376077550009,101.50287884
1405011,1405,SUNGAI MANDAU,0.98814230700012,101.67432205601
1405012,1405,KANDIS,1.0229614950001,101.1950586415
1405020,1405,SIAK,0.87428975550008,101.9241107735
1405021,1405,KERINCI KANAN,0.48784246800006,101.79300241249
1405022,1405,TUALANG,0.65238597050007,101.6214199935
1405023,1405,DAYUN,0.6529319185001,102.099267281
1405024,1405,LUBUK DALAM,0.59677832600001,101.7918898645
1405025,1405,KOTO GASIB,0.75168299500013,101.80773084551
1405026,1405,MEMPURA,0.81517597050008,102.055364894
1405030,1405,SUNGAI APIT,0.92223673000001,102.4978092405
1405031,1405,BUNGA RAYA,0.98135049350003,102.042547779
1405032,1405,SABAK AUH,1.122175316,102.11202017601
1405033,1405,PUSAKO,0.91428168050003,102.1667595475
1406010,1406,KAMPAR KIRI,-0.029762813999962,101.09564685
1406011,1406,KAMPAR KIRI HULU,-0.17202650649997,100.960075424
1406012,1406,KAMPAR KIRI HILIR,0.082173952500025,101.4641597255
1406013,1406,GUNUNG SAHILAN,0.034825311500048,101.323648118
1406014,1406,KAMPAR KIRI TENGAH,0.071087585000048,101.348253257
1406020,1406,XIII KOTO KAMPAR,0.25015580600007,100.830264226
1406021,1406,KOTO KAMPAR HULU,0.38252026750005,100.5568747365
1406030,1406,KUOK,0.3261832020001,100.92836786451
1406031,1406,SALO,0.31204062900005,101.0024187485
1406040,1406,TAPUNG,0.59781678800007,101.057879024
1406041,1406,TAPUNG HULU,0.78967722950003,100.788874036
1406042,1406,TAPUNG HILIR,0.80159908050006,101.1544509525
1406050,1406,BANGKINANG KOTA,0.26058429350006,101.068866297
1406051,1406,BANGKINANG,0.43122708450006,101.017195803
1406060,1406,KAMPAR,0.26549264450005,101.11883120349
1406061,1406,KAMPAR TIMUR,0.35994611799997,101.20610016849
1406062,1406,RUMBIO JAYA,0.42641757999987,101.14290362446
1406063,1406,KAMPAR UTARA,0.40713733100008,101.0814380665
1406070,1406,TAMBANG,0.36903952100003,101.3195837325
1406080,1406,SIAK HULU,0.35536652950004,101.5411820725
1406081,1406,PERHENTIAN RAJA,0.33244559550009,101.39477531352
1407010,1407,ROKAN IV KOTO,0.58048762200003,100.355977538
1407011,1407,PENDALIAN IV KOTO,0.49887849100002,100.48670111899
1407020,1407,TANDUN,0.591341965,100.61685606049
1407021,1407,KABUN,0.46145345500004,100.731300296
1407022,1407,UJUNG BATU,0.68056751699983,100.52052437397
1407030,1407,RAMBAH SAMO,0.82472061699998,100.43350694899
1407040,1407,RAMBAH,0.82734018600003,100.2517789
1407041,1407,RAMBAH HILIR,0.97600208450017,100.36045844601
1407042,1407,BANGUN PURBA,0.91321598050018,100.19695010501
1407050,1407,TAMBUSAI,1.1026492095001,100.27874659451
1407051,1407,TAMBUSAI UTARA,1.2852668825,100.3252898005
1407060,1407,KEPENUHAN,1.1364131950002,100.62035146551
1407061,1407,KEPENUHAN HULU,0.99982050950027,100.52851701902
1407070,1407,KUNTO DARUSSALAM,0.93565423000013,100.68873217701
1407071,1407,PAGARAN TAPAH DARUSSALAM,0.7569692225,100.5987782205
1407072,1407,BONAI DARUSSALAM,1.176777284,100.817007966
1408010,1408,MANDAU,1.275914921,101.1891230345
1408011,1408,PINGGIR,1.1602649090001,101.42673911
1408020,1408,BUKIT BATU,1.472416956,101.7907370065
1408021,1408,SIAK KECIL,1.1227118885,101.9031497155
1408030,1408,RUPAT,1.8674625650001,101.5692885525
1408031,1408,RUPAT UTARA,2.0267167304999,101.56041698549
1408040,1408,BENGKALIS,1.4291492090001,102.2532815185
1408050,1408,BANTAN,1.449413504,102.3068043845
1409043,1409,PEKAITAN,1.9994812680001,100.7863607165
1409010,1409,TANAH PUTIH,1.473687034,101.0582133735
1409011,1409,PUJUD,1.3997634625002,100.66815972301
1409012,1409,TANAH PUTIH TANJUNG MELAWAN,1.7163548780001,101.124856234
1409013,1409,RANTAU KOPAR,1.4055647750002,101.04385086651
1409014,1409,TANJUNG MEDAN,1.4299656010001,100.435893972
1409020,1409,BAGAN SINEMBAH,1.6715551430003,100.42698408751
1409021,1409,SIMPANG KANAN,1.8760089490002,100.39093411651
1409022,1409,BAGAN SINEMBAH RAYA,1.8346444169999,100.50257150149
1409023,1409,BALAI JAYA,1.7497878275002,100.56536506751
1409030,1409,KUBU,2.0643173645002,100.53590317051
1409031,1409,PASIR LIMAU KAPAS,2.4466492874998,100.49003297799
1409032,1409,KUBU BABUSSALAM,2.0720348035001,100.586605879
1409040,1409,BANGKO,2.1485123069999,100.87653927749
1409041,1409,SINABOI,2.2026779730003,100.96241853751
1409042,1409,BATU HAMPAR,1.949339577001,100.98615509705
1409050,1409,RIMBA MELINTANG,1.7789006784998,101.01595694248
1409051,1409,BANGKO PUSAKO,1.746717183,100.8127150025
1410010,1410,TEBING TINGGI BARAT,0.88539960200003,102.5553630825
1410020,1410,TEBING TINGGI,0.98347162949965,102.73680917096
1410021,1410,TEBING TINGGI TIMUR,0.82875769500002,102.8135361195
1410030,1410,RANGSANG,0.88288440349998,103.04939832899
1410031,1410,RANGSANG PESISIR,1.0667155055003,102.86926534352
1410040,1410,RANGSANG BARAT,1.0744257515004,102.70416315553
1410050,1410,MERBAU,1.08131907,102.3541881705
1410051,1410,PULAU MERBAU,1.0367937020003,102.53683147554
1410052,1410,TASIK PUTRI PUYU,1.248345749,102.34609280699
1471010,1471,TAMPAN,0.46190463900009,101.39091433701
1471011,1471,PAYUNG SEKAKI,0.52855387100032,101.39781677355
1471020,1471,BUKIT RAYA,0.46550682850019,101.47112142952
1471021,1471,MARPOYAN DAMAI,0.46714618549976,101.43681904095
1471022,1471,TENAYAN RAYA,0.51116087100007,101.53000246201
1471030,1471,LIMAPULUH,0.54078072150044,101.45804836956
1471040,1471,SAIL,0.51354293450192,101.46016677488
1471050,1471,PEKANBARU KOTA,0.51974153649949,101.44783567644
1471060,1471,SUKAJADI,0.51675741149811,101.43841606863
1471070,1471,SENAPELAN,0.53672321850021,101.43779341604
1471080,1471,RUMBAI,0.61687135699986,101.39158167597
1471081,1471,RUMBAI PESISIR,0.60046766950018,101.50732001302
1473010,1473,BUKIT KAPUR,1.5236588185004,101.42272661852
1473011,1473,MEDANG KAMPAI,1.5786832090001,101.5839346975
1473012,1473,SUNGAI SEMBILAN,1.9233819340002,101.19840770151
1473020,1473,DUMAI BARAT,1.6874372865003,101.39271980001
1473021,1473,DUMAI SELATAN,1.6393077275012,101.39296803207
1473030,1473,DUMAI TIMUR,1.6361200560007,101.45200023254
1473031,1473,DUMAI KOTA,1.6741158694824,101.43925021893
1501010,1501,GUNUNG RAYA,-2.3151428644999,101.6416660915
1501011,1501,BUKIT KERMAN,-2.2592489995001,101.49566293451
1501020,1501,BATANG MERANGIN,-2.1155444959998,101.6909251325
1501030,1501,KELILING DANAU,-2.2254843384995,101.41261202798
1501040,1501,DANAU KERINCI,-2.0296481249998,101.56546080799
1501050,1501,SITINJAU LAUT,-2.0666248329997,101.49047505749
1501070,1501,AIR HANGAT,-1.9246854775003,101.49443901552
1501071,1501,AIR HANGAT TIMUR,-2.0003096355,101.4936289305
1501072,1501,DEPATI VII,-2.0180049710033,101.35261016467
1501073,1501,AIR HANGAT BARAT,-1.9919170450029,101.34358767966
1501080,1501,GUNUNG KERINCI,-1.9083285834997,101.27183354199
1501081,1501,SIULAK,-1.9756427644997,101.29020157699
1501082,1501,SIULAK MUKAI,-1.8519400464995,101.45505744148
1501090,1501,KAYU ARO,-1.7731345349995,101.31810287598
1501091,1501,GUNUNG TUJUH,-1.7280866774999,101.3648841595
1501092,1501,KAYU ARO BARAT,-1.7636578974997,101.21848945949
1502010,1502,JANGKAT,-2.5355501379999,101.7576894545
1502011,1502,SUNGAI TENANG,-2.607722447,102.00666216
1502020,1502,MUARA SIAU,-2.3028151714998,101.95654630149
1502021,1502,LEMBAH MASURAI,-2.3989873115002,101.90912940451
1502022,1502,TIANG PUMPUNG,-2.307112204,102.2490858085
1502030,1502,PAMENANG,-2.1088622339996,102.52997611749
1502031,1502,PAMENANG BARAT,-2.0774255289998,102.40077905199
1502032,1502,RENAH PAMENANG,-2.1964402774992,102.38080346747
1502033,1502,PAMENANG SELATAN,-2.2831635980004,102.37541534703
1502040,1502,BANGKO,-2.0917866950008,102.30650915004
1502041,1502,BANGKO BARAT,-2.1737191749998,102.23796056449
1502042,1502,NALO TANTAN,-2.0283849999996,102.18794492449
1502043,1502,BATANG MASUMAI,-2.0849421135007,102.18381643954
1502050,1502,SUNGAI MANAU,-2.0962707185001,101.93357000001
1502051,1502,RENAH PEMBARAP,-2.1102139234999,102.083276984
1502052,1502,PANGKALAN JAMBU,-2.1274150425002,101.84486502751
1502060,1502,TABIR,-1.7989048720001,102.26308922401
1502061,1502,TABIR ULU,-1.9216350205009,102.18222890455
1502062,1502,TABIR SELATAN,-1.9194029949998,102.41303402699
1502063,1502,TABIR ILIR,-1.7505869519998,102.39600416099
1502064,1502,TABIR TIMUR,-1.7108662184993,102.47597012146
1502065,1502,TABIR LINTAS,-1.9309842750002,102.28705945901
1502066,1502,MARGO TABIR,-1.8827195439992,102.36626401446
1502067,1502,TABIR BARAT,-1.9279692565,101.8731673095
1503010,1503,BATANG ASAI,-2.5604579919999,102.23972062099
1503020,1503,LIMUN,-2.5412681195,102.4866135075
1503021,1503,CERMIN NAN GEDANG,-2.4106108264995,102.51192481899
1503030,1503,PELAWAN,-2.4194588965,102.7503244205
1503031,1503,SINGKUT,-2.5392682839984,102.71698816744
1503040,1503,SAROLANGUN,-2.2592558010002,102.72982608651
1503041,1503,BATHIN VIII,-2.2516754514998,102.54443598199
1503050,1503,PAUH,-2.206489912,102.84583632
1503051,1503,AIR HITAM,-2.0075938345,102.641089026
1503060,1503,MANDIANGIN,-2.1492066209999,103.021524849
1504010,1504,MERSAM,-1.5589383295,102.9529610775
1504011,1504,MARO SEBO ULU,-1.7117942749999,102.7153743555
1504020,1504,BATIN XXIV,-1.8681332429999,102.961448936
1504030,1504,MUARA TEMBESI,-1.6887135495002,103.10707645601
1504040,1504,MUARA BULIAN,-1.7552509195,103.2457581
1504041,1504,BAJUBANG,-2.009094896,103.3127225475
1504042,1504,MARO SEBO ILIR,-1.6148012610002,103.18929570601
1504050,1504,PEMAYUNG,-1.5239056939999,103.2522680725
1505010,1505,MESTONG,-1.8166012870003,103.52661375652
1505011,1505,SUNGAI BAHAR,-1.9797142835,103.46479603101
1505012,1505,BAHAR SELATAN,-2.0907811309995,103.49492375848
1505013,1505,BAHAR UTARA,-1.9331996394992,103.39138388396
1505020,1505,KUMPEH ULU,-1.6068132429999,103.787992396
1505021,1505,SUNGAI GELAM,-1.7227118404999,103.807710499
1505030,1505,KUMPEH,-1.532808669,104.071749926
1505040,1505,MARO SEBO,-1.4345525204999,103.599759162
1505041,1505,TAMAN RAJO,-1.4457106215001,103.75032994801
1505050,1505,JAMBI LUAR KOTA,-1.6360391850002,103.48338587102
1505060,1505,SEKERNAN,-1.3844533185,103.3891918745
1506010,1506,MENDAHARA,-0.99883517899991,103.596768247
1506011,1506,MENDAHARA ULU,-1.201582534,103.4966268635
1506012,1506,GERAGAI,-1.217769552,103.67229453351
1506020,1506,DENDANG,-1.2382276190001,103.93371081551
1506031,1506,MUARA SABAK BARAT,-1.2201017385001,103.81576115352
1506032,1506,MUARA SABAK TIMUR,-1.0748919609999,103.93632808099
1506033,1506,KUALA JAMBI,-1.0550433105001,103.78878797001
1506040,1506,RANTAU RASAU,-1.1628710084999,104.08860107399
1506041,1506,BERBAK,-1.222824261,104.1762471885
1506050,1506,NIPAH PANJANG,-1.084454144,104.18681253051
1506060,1506,SADU,-1.2662229014999,104.39458475
1507010,1507,TUNGKAL ULU,-1.1372932635,103.12557067151
1507011,1507,MERLUNG,-1.3290960180001,103.02730030851
1507012,1507,BATANG ASAM,-1.0513724869999,102.844259547
1507013,1507,TEBING TINGGI,-1.013715439,103.1279427915
1507014,1507,RENAH MENDALUH,-1.296071242,102.8259252205
1507015,1507,MUARA PAPALIK,-1.2913804254999,103.1618735695
1507020,1507,PENGABUAN,-0.89915875749998,103.2339725755
1507021,1507,SENYERANG,-0.85613990899997,103.040986269
1507030,1507,TUNGKAL ILIR,-0.8485134435,103.493537417
1507031,1507,BRAM ITAM,-0.98026135399998,103.311892918
1507032,1507,SEBERANG KOTA,-0.78458985549991,103.36599274649
1507040,1507,BETARA,-1.0600996129999,103.369948696
1507041,1507,KUALA BETARA,-0.92968568399994,103.5034166275
1508010,1508,TEBO ILIR,-1.5561736424998,102.71326177999
1508011,1508,MUARA TABIR,-1.7278237489999,102.586210417
1508020,1508,TEBO TENGAH,-1.3747969085,102.504605674
1508021,1508,SUMAY,-1.1897755949999,102.4494271715
1508022,1508,TENGAH ILIR,-1.4041647925,102.69357426
1508030,1508,RIMBO BUJANG,-1.3330189445,102.13755004
1508031,1508,RIMBO ULU,-1.28893628,102.0016836905
1508032,1508,RIMBO ILIR,-1.3926479105001,102.27574792451
1508040,1508,TEBO ULU,-1.28128554,102.284388962
1508041,1508,VII KOTO,-1.0468595385,101.97086672601
1508042,1508,SERAI SERUMPUN,-1.1598761994998,102.28028921499
1508043,1508,VII KOTO ILIR,-1.0503997214999,102.13011137549
1509010,1509,PELEPAT,-1.7399852389999,101.99579757299
1509011,1509,PELEPAT ILIR,-1.6327720974998,102.33774219249
1509021,1509,BATHIN II BABEKO,-1.5164015059993,102.23496349645
1509022,1509,RIMBO TENGAH,-1.5380899024997,102.13230160498
1509023,1509,BUNGO DANI,-1.5014098319985,102.07880944091
1509024,1509,PASAR MUARA BUNGO,-1.4907649074941,102.1291576601
1509025,1509,BATHIN III,-1.4422516920011,102.09381990909
1509030,1509,RANTAU PANDAN,-1.6576316000001,101.92850506301
1509031,1509,MUKO-MUKO BATHIN VII,-1.5336390220002,101.97437571652
1509032,1509,BATHIN III ULU,-1.7010638435,101.83779058
1509040,1509,TANAH SEPENGGAL,-1.4528698294996,101.96474264297
1509041,1509,TANAH SEPENGGAL LINTAS,-1.3870183984997,101.96308301099
1509050,1509,TANAH TUMBUH,-1.4593710775,101.8891519105
1509051,1509,LIMBUR LUBUK MENGKUANG,-1.6651422174999,101.6401501495
1509052,1509,BATHIN II PELAYANG,-1.4254651559999,101.79065651549
1509060,1509,JUJUHAN,-1.317795151,101.7876801245
1509061,1509,JUJUHAN ILIR,-1.2107823300001,101.89806013001
1571010,1571,KOTA BARU,-1.6484658014999,103.57810105599
1571011,1571,ALAM BARAJO,,
1571020,1571,JAMBI SELATAN,-1.6331418024987,103.65006592992
1571021,1571,PAAL MERAH,,
1571030,1571,JELUTUNG,-1.6186921485103,103.61108948468
1571040,1571,PASAR JAMBI,-1.5943128360071,103.61352445695
1571050,1571,TELANAIPURA,-1.5933552174981,103.57353618737
1571051,1571,DANAU SIPIN,,
1571060,1571,DANAU TELUK,-1.5681122114974,103.58888381584
1571070,1571,PELAYANGAN,-1.5672255519936,103.62924810607
1571080,1571,JAMBI TIMUR,-1.5847212459967,103.63650209976
1572010,1572,TANAH KAMPUNG,-2.0772761924988,101.43919005245
1572020,1572,KUMUN DEBAI,-2.1655424119992,101.35512641996
1572030,1572,SUNGAI PENUH,-2.0625868309751,101.40906875927
1572031,1572,PONDOK TINGGI,-2.1127913135005,101.34403680503
1572032,1572,SUNGAI BUNGKAL,-2.0616201159987,101.32378899344
1572040,1572,HAMPARAN RAWANG,-2.0468710770022,101.41799340559
1572050,1572,PESISIR BUKIT,-2.0451791580004,101.35988557402
1572051,1572,KOTO BARU,-2.0345439709573,101.39387441991
1601052,1601,LENGKITI,-4.3251209450003,104.02615740451
1601070,1601,SOSOH BUAY RAYAP,-4.2075618214988,104.10172815198
1601080,1601,PENGANDONAN,-4.1097558894986,103.89699501197
1601081,1601,SEMIDANG AJI,-4.0260183715003,103.99272278151
1601082,1601,ULU OGAN,-4.1876489654986,103.70409561147
1601083,1601,MUARA JAYA,-4.148826039001,103.86900666502
1601090,1601,PENINJAUAN,-3.8903321979999,104.339458826
1601091,1601,LUBUK BATANG,-3.963579788,104.135824232
1601092,1601,SINAR PENINJAUAN,-3.9410979119997,104.40617905549
1601093,1601,KEDATON PENINJAUAN RAYA,-3.8111266620008,104.48424622002
1601130,1601,BATU RAJA TIMUR,-4.1477698514996,104.21527281499
1601131,1601,LUBUK RAJA,-4.1280409835027,104.29067647407
1601140,1601,BATU RAJA BARAT,-4.1144060244962,104.11044581291
1602010,1602,LEMPUING,-3.9031404739982,104.95161331245
1602011,1602,LEMPUING JAYA,-3.6940847984998,104.90719508
1602020,1602,MESUJI,-3.9444491929998,105.15020276949
1602021,1602,SUNGAI MENANG,-3.8847174084999,105.588973744
1602022,1602,MESUJI MAKMUR,-4.1290418149999,104.9072817255
1602023,1602,MESUJI RAYA,-3.7601444154994,105.11393849948
1602030,1602,TULUNG SELAPAN,-3.0571495419999,105.689874203
1602031,1602,CENGAL,-3.5639662285,105.5351128775
1602040,1602,PEDAMARAN,-3.4807771304998,104.9859315785
1602041,1602,PEDAMARAN TIMUR,-3.5155099485002,105.15195910501
1602050,1602,TANJUNG LUBUK,-3.5710282360016,104.71319911205
1602051,1602,TELUK GELAM,-3.5915178859991,104.79256632998
1602060,1602,KOTA KAYU AGUNG,-3.3918154855003,104.86935416601
1602120,1602,SIRAH PULAU PADANG,-3.2739913649994,104.87368931349
1602121,1602,JEJAWI,-3.1650851364997,104.86983999049
1602130,1602,PAMPANGAN,-3.2593768315005,105.04619113802
1602131,1602,PANGKALAN LAPAM,-3.1373385400001,105.18946813001
1602140,1602,AIR SUGIHAN,-2.7505696115,105.4270102445
1603010,1603,SEMENDO DARAT LAUT,-4.0909526835009,103.63694743302
1603011,1603,SEMENDO DARAT ULU,-4.2760663530005,103.49014517201
1603012,1603,SEMENDO DARAT TENGAH,-4.1956134354989,103.46818448848
1603020,1603,TANJUNG AGUNG,-3.9438072449993,103.79485058398
1603031,1603,RAMBANG,-3.6101391359998,104.160605742
1603032,1603,LUBAI,-3.6649374239999,104.306126141
1603033,1603,LUBAI ULU,-3.8051577294999,104.1044395965
1603040,1603,LAWANG KIDUL,-3.7805137204993,103.83280049048
1603050,1603,MUARA ENIM,-3.6719012815003,103.80312909452
1603051,1603,UJAN MAS,-3.5324098835002,103.69802152051
1603060,1603,GUNUNG MEGANG,-3.5394924849997,103.86467981049
1603061,1603,BENAKAT,-3.4047678135007,103.73947150252
1603062,1603,BELIMBING,-3.4168222360037,103.97386909762
1603070,1603,RAMBANG DANGKU,-3.6112095199997,104.03359665049
1603090,1603,GELUMBANG,-3.213749905,104.405093179
1603091,1603,LEMBAK,-3.3700665285008,104.31765738453
1603092,1603,SUNGAI ROTAN,-3.1556279994987,104.28124988296
1603093,1603,MUARA BELIDA,-3.0622094124995,104.51670475798
1603094,1603,KELEKAR,-3.3419239740007,104.47753593152
1603095,1603,BELIDA DARAT,-3.4278188535016,104.37034522155
1604011,1604,TANJUNG SAKTI PUMI,-4.1359337564981,103.10319151845
1604012,1604,TANJUNG SAKTI PUMU,-4.0891683755002,103.00101893851
1604040,1604,KOTA AGUNG,-4.1348725319992,103.41078539598
1604041,1604,MULAK ULU,-4.0345940270029,103.52759303358
1604042,1604,TANJUNG TEBAT,-3.9823053624942,103.46130828735
1604050,1604,PULAU PINANG,-3.8602814140045,103.55582186162
1604051,1604,PAGAR GUNUNG,-3.9367745109965,103.56915564441
1604052,1604,GUMAY ULU,-3.9350176759952,103.41240428388
1604060,1604,JARAI,-3.9292183435004,103.17633266951
1604061,1604,PAJAR BULAN,-3.964137036001,103.29915668653
1604062,1604,MUARA PAYANG,-3.8977912744974,103.13750756393
1604063,1604,SUKAMERINDU,-3.942866997498,103.21700175746
1604111,1604,KIKIM BARAT,-3.5814322404988,103.21178432847
1604112,1604,KIKIM TIMUR,-3.6402796694995,103.39260575749
1604113,1604,KIKIM SELATAN,-3.7584439029996,103.21926465799
1604114,1604,KIKIM TENGAH,-3.6483176150055,103.24979159866
1604120,1604,LAHAT,-3.7172676284966,103.54080396141
1604121,1604,GUMAY TALANG,-3.7474096439989,103.46225683197
1604122,1604,PSEKSU,-3.8199795974993,103.32107467298
1604131,1604,MERAPI BARAT,-3.7419818100015,103.65145084954
1604132,1604,MERAPI TIMUR,-3.6362240824999,103.6553124115
1604133,1604,MERAPI SELATAN,-3.8683492679983,103.66391259047
1605030,1605,SUKU TENGAH LAKITAN ULU,-3.0766437695,102.716688749
1605031,1605,SELANGIT,-3.2189696015003,102.67703497201
1605032,1605,SUMBER HARTA,-3.0358052900005,102.95097337052
1605040,1605,TUGUMULYO,-3.1641263299975,102.96520355542
1605041,1605,PURWODADI,-3.1007064910032,102.98823696911
1605050,1605,MUARA BELITI,-3.2623630449997,103.03701003349
1605051,1605,TIANG PUMPUNG KEPUNGUT,-3.3701767010006,103.08496103952
1605060,1605,JAYALOKA,-3.345844458502,103.20351394606
1605061,1605,SUKA KARYA,-3.231427890501,103.18461709703
1605070,1605,MUARA KELINGI,-3.040781046,103.2582516855
1605071,1605,BULANG TENGAH SUKU ULU,-3.3339387235003,103.27894254251
1605072,1605,TUAH NEGERI,-3.1510020025007,103.10534687152
1605080,1605,MUARA LAKITAN,-3.175197373,103.366943802
1605090,1605,MEGANG SAKTI,-2.9850416999995,103.00468545598
1606010,1606,SANGA DESA,-2.7107772715003,103.40751219501
1606020,1606,BABAT TOMAN,-2.7163280555005,103.55856774352
1606021,1606,BATANGHARI LEKO,-2.4287525799999,103.431903612
1606022,1606,PLAKAT TINGGI,-2.9314054300005,103.56170772652
1606023,1606,LAWANG WETAN,-2.8035650195005,103.69983815102
1606030,1606,SUNGAI KERUH,-3.1093412810002,103.69450858751
1606040,1606,SEKAYU,-2.8462303544998,103.838852721
1606041,1606,LAIS,-2.9045104389999,104.045423477
1606090,1606,SUNGAI LILIN,-2.5375022694999,104.0356712755
1606091,1606,KELUANG,-2.6040033569995,103.91431676698
1606092,1606,BABAT SUPAT,-2.7353505015,104.106233748
1606100,1606,BAYUNG LENCIR,-2.0344381109999,103.92229554
1606101,1606,LALAN,-2.328539577,104.34973539551
1606102,1606,TUNGKAL JAYA,-2.3015743530001,103.78845552
1607010,1607,RANTAU BAYUR,-2.9858305195007,104.39929001253
1607020,1607,BETUNG,-2.7800977725005,104.24886520052
1607021,1607,SUAK TAPEH,-2.8178028079999,104.3411224225
1607030,1607,PULAU RIMAU,-2.5680953815002,104.45734962301
1607031,1607,TUNGKAL ILIR,-2.5458221705005,104.21882600152
1607040,1607,BANYUASIN III,-2.8904650485001,104.37500766001
1607041,1607,SEMBAWA,-2.8549024340002,104.51928661852
1607050,1607,TALANG KELAPA,-2.8371581694999,104.6894957315
1607051,1607,TANJUNG LAGO,-2.6100857389998,104.61584962399
1607060,1607,BANYUASIN I,-2.8647163500004,104.91639495202
1607061,1607,AIR KUMBANG,-2.8789547494994,104.99942098998
1607070,1607,RAMBUTAN,-3.0628205649997,104.91107139549
1607080,1607,MUARA PADANG,-2.6124381695004,105.10807076852
1607081,1607,MUARA SUGIHAN,-2.4583299624999,105.324704217
1607090,1607,MAKARTI JAYA,-2.5071939110001,104.94768821351
1607091,1607,AIR SALEH,-2.5829440404993,104.99769757997
1607100,1607,BANYUASIN II,-2.0591376689999,104.540960232
1607110,1607,MUARA TELANG,-2.6656568419997,104.88619138199
1607111,1607,SUMBER MARGA TELANG,-2.5636896344992,104.80751659448
1608010,1608,MEKAKAU ILIR,-4.6599788764997,103.78321058149
1608020,1608,BANDING AGUNG,-4.7816484675009,103.90955417552
1608021,1608,WARKUK RANAU SELATAN,-4.8370249059996,104.085270253
1608022,1608,BUAY PEMATANG RIBU RANAU TENGAH,-4.7820914955018,104.04768034054
1608030,1608,BUAY PEMACA,-4.7098400094999,104.2307023725
1608040,1608,SIMPANG,-4.4489738260079,104.16925761819
1608041,1608,BUANA PEMACA,-4.5418667515017,104.21848632354
1608050,1608,MUARADUA,-4.5486487395006,104.04566387051
1608051,1608,BUAY RAWAN,-4.6332938189993,104.05339757849
1608060,1608,BUAY SANDANG AJI,-4.5440952800004,103.89115267501
1608061,1608,TIGA DIHAJI,-4.6181556629986,103.92524699447
1608070,1608,BUAY RUNJUNG,-4.4863951815015,103.90391426054
1608071,1608,RUNJUNG AGUNG,-4.4250612849955,103.8940977449
1608080,1608,KISAM TINGGI,-4.3097098115006,103.75724582351
1608090,1608,MUARADUA KISAM,-4.3792439355011,103.72566038252
1608091,1608,KISAM ILIR,-4.4820323655107,103.77961057676
1608100,1608,PULAU BERINGIN,-4.4996017295011,103.67540045302
1608101,1608,SINDANG DANAU,-4.4656279414992,103.53340777098
1608102,1608,SUNGAI ARE,-4.4842049464979,103.47411713795
1609010,1609,MARTAPURA,-4.3006975524996,104.3319751215
1609011,1609,BUNGA MAYANG,-4.3823237910006,104.24056378451
1609012,1609,JAYA PURA,-4.4639372524993,104.28941247497
1609020,1609,BUAY PEMUKA PELIUNG,-4.2512849404994,104.35230003799
1609030,1609,BUAY MADANG,-4.2477705319998,104.5008469945
1609031,1609,BUAY MADANG TIMUR,-4.1781292555034,104.56900506258
1609032,1609,BUAY PEMUKA BANGSA RAJA,-4.155225140498,104.46310125745
1609040,1609,MADANG SUKU II,-4.0614739064997,104.50974699949
1609041,1609,MADANG SUKU III,-4.0999806289983,104.39832636446
1609050,1609,MADANG SUKU I,-3.9692352614993,104.52952588148
1609051,1609,BELITANG MADANG RAYA,-4.0544401405013,104.61536434103
1609060,1609,BELITANG,-4.1538982590023,104.64065016506
1609061,1609,BELITANG JAYA,-4.1952584040054,104.68907683814
1609070,1609,BELITANG III,-4.1294954325003,104.73064046401
1609080,1609,BELITANG II,-4.0340212704998,104.83490299299
1609081,1609,BELITANG MULYA,-4.0398195534996,104.73291228301
1609090,1609,SEMENDAWAI SUKU III,-3.9667085169987,104.70461070447
1609091,1609,SEMENDAWAI TIMUR,-3.8785359199989,104.82411707046
1609100,1609,CEMPAKA,-3.7514986459992,104.71254325898
1609101,1609,SEMENDAWAI BARAT,-3.858798850999,104.65963211548
1610010,1610,MUARA KUANG,-3.6789326415008,104.57849249952
1610011,1610,RAMBANG KUANG,-3.6240705225001,104.42690547
1610012,1610,LUBUK KELIAT,-3.4780358655009,104.61637398752
1610020,1610,TANJUNG BATU,-3.3299119505006,104.63607745252
1610021,1610,PAYARAMAN,-3.4265773529983,104.52099052045
1610030,1610,RANTAU ALAI,-3.4424097809982,104.73581374495
1610031,1610,KANDIS,-3.4268847910078,104.79008337225
1610040,1610,TANJUNG RAJA,-3.3448115130011,104.74248003852
1610041,1610,RANTAU PANJANG,-3.2804913525007,104.77127524052
1610042,1610,SUNGAI PINANG,-3.3584446110028,104.79307227858
1610050,1610,PEMULUTAN,-3.1077004685021,104.75856302107
1610051,1610,PEMULUTAN SELATAN,-3.2237839940006,104.77888418453
1610052,1610,PEMULUTAN BARAT,-3.1791328630025,104.72833768958
1610060,1610,INDRALAYA,-3.2472404965004,104.68608771501
1610061,1610,INDRALAYA UTARA,-3.1567529480006,104.59931753102
1610062,1610,INDRALAYA SELATAN,-3.3041579950059,104.68583822769
1611010,1611,MUARA PINANG,-3.8748100404984,103.08212546996
1611020,1611,LINTANG KANAN,-3.9179209240011,103.02810164753
1611030,1611,PENDOPO,-3.8504814245,102.979534788
1611031,1611,PENDOPO BARAT,-3.7606517229984,102.92217260046
1611040,1611,PASEMAH AIR KERUH,-3.886726770998,102.73887021395
1611050,1611,ULU MUSI,-3.758113679,102.755291787
1611051,1611,SIKAP DALAM,-3.8606389805028,102.87177315507
1611060,1611,TALANG PADANG,-3.6915545974996,102.92462192249
1611070,1611,TEBING TINGGI,-3.6474731694999,103.024984043
1611071,1611,SALING,-3.506153566499,103.00884639997
1612010,1612,TALANG UBI,-3.260764233,103.855178714
1612020,1612,TANAH ABANG,-3.3074366859994,104.13059142148
1612030,1612,ABAB,-3.154036569,104.1665825695
1612040,1612,PENUKAL,-3.137885327,104.0484456405
1612050,1612,PENUKAL UTARA,-3.1053884985002,103.96279504351
1613010,1613,ULU RAWAS,-2.841861471,102.348688129
1613020,1613,KARANG JAYA,-2.9182880259999,102.6433619065
1613030,1613,RAWAS ULU,-2.6115308585,102.7410432685
1613040,1613,RUPIT,-2.7386043075,102.808867909
1613050,1613,KARANG DAPO,-2.7224755685003,102.98832821401
1613060,1613,RAWAS ILIR,-2.6183543469999,103.131739914
1613070,1613,NIBUNG,-2.4532185335001,102.95440179301
1671010,1671,ILIR BARAT II,-2.9983927875448,104.74572704958
1671011,1671,GANDUS,-3.0014867404937,104.68678000979
1671020,1671,SEBERANG ULU I,-3.0152346389998,104.7722881485
1671021,1671,KERTAPATI,-3.0537225224943,104.7189816603
1671030,1671,SEBERANG ULU II,-3.0011189435406,104.78572314393
1671031,1671,PLAJU,-3.012263128997,104.81054449689
1671040,1671,ILIR BARAT I,-2.9670670510089,104.68795291031
1671041,1671,BUKIT KECIL,-2.9874944779743,104.7534259471
1671050,1671,ILIR TIMUR I,-2.9725297485045,104.74688992866
1671051,1671,KEMUNING,-2.9537992629794,104.74776432526
1671060,1671,ILIR TIMUR II,-2.9586660115002,104.78858889952
1671061,1671,KALIDONI,-2.9614823165076,104.81650866227
1671070,1671,SAKO,-2.9221380034933,104.78221904327
1671071,1671,SEMATANG BORANG,-2.9425113600228,104.81894767933
1671080,1671,SUKARAMI,-2.9087891864979,104.71299583042
1671081,1671,ALANG ALANG LEBAR,-2.9424588215054,104.70470861068
1672010,1672,RAMBANG KAPAK TENGAH,-3.5189676730005,104.22186443302
1672020,1672,PRABUMULIH TIMUR,-3.4324273774918,104.27945668875
1672021,1672,PRABUMULIH SELATAN,-3.488840062495,104.24853204986
1672030,1672,PRABUMULIH BARAT,-3.414191523504,104.18452120962
1672031,1672,PRABUMULIH UTARA,-3.415365801032,104.21884857799
1672040,1672,CAMBAI,-3.3819778815076,104.26980787224
1673010,1673,DEMPO SELATAN,-4.1214475614997,103.33249450149
1673011,1673,DEMPO TENGAH,-4.1431828595002,103.26118373051
1673020,1673,DEMPO UTARA,-4.1039025500037,103.21121145259
1673030,1673,PAGAR ALAM SELATAN,-4.0416056459904,103.20619717975
1673040,1673,PAGAR ALAM UTARA,-4.0125618484955,103.20584276739
1674011,1674,LUBUK LINGGAU BARAT I,-3.3038658694964,102.8315017254
1674012,1674,LUBUK LINGGAU BARAT II,-3.282356509008,102.84823830826
1674021,1674,LUBUK LINGGAU SELATAN I,-3.318913013994,102.92699916982
1674022,1674,LUBUK LINGGAU SELATAN II,-3.2487044099932,102.92705058778
1674031,1674,LUBUK LINGGAU TIMUR I,-3.2897509145125,102.89562814639
1674032,1674,LUBUK LINGGAU TIMUR II,-3.3094791019824,102.88016491094
1674041,1674,LUBUK LINGGAU UTARA I,-3.2066432210003,102.84516512151
1674042,1674,LUBUK LINGGAU UTARA II,-3.2500166254962,102.87088330688
1701040,1701,MANNA,-4.4599009610041,102.9413304781
1701041,1701,KOTA MANNA,-4.4413287279988,102.91160312897
1701042,1701,KEDURANG,-4.375117506,103.1709827025
1701043,1701,BUNGA MAS,-4.4958836059962,102.98780168841
1701044,1701,PASAR MANNA,-4.4698485284992,102.913395912
1701045,1701,KEDURANG ILIR,-4.5048173585063,103.05828954764
1701050,1701,SEGINIM,-4.4383373020009,103.01942795152
1701051,1701,AIR NIPIS,-4.3383931604995,103.11933745299
1701060,1701,PINO,-4.3921915040031,102.97025164757
1701061,1701,PINORAYA,-4.2948385840009,102.91815489452
1701062,1701,ULU MANNA,-4.2703394415003,103.02332927551
1702020,1702,KOTA PADANG,-3.488338501998,102.94832669445
1702021,1702,SINDANG BELITI ILIR,-3.4716316460001,102.8918808785
1702030,1702,PADANG ULAK TANDING,-3.3558275335014,102.76032749154
1702031,1702,SINDANG KELINGI,-3.4691219309955,102.67893619837
1702032,1702,BINDU RIANG,-3.443506616999,102.75024935747
1702033,1702,SINDANG BELITI ULU,-3.4696081560002,102.79444120601
1702034,1702,SINDANG DATARAN,-3.5251523799969,102.73015407441
1702040,1702,CURUP,-3.4702369394953,102.51675426834
1702041,1702,BERMANI ULU,-3.4423817315019,102.43107823855
1702042,1702,SELUPU REJANG,-3.4285414465019,102.61023758006
1702043,1702,CURUP SELATAN,-3.5054583670043,102.48813537263
1702044,1702,CURUP TENGAH,-3.4837292719862,102.5448068461
1702045,1702,BERMANI ULU RAYA,-3.3456053610003,102.48502579601
1702046,1702,CURUP UTARA,-3.4463606584949,102.51271526285
1702047,1702,CURUP TIMUR,-3.4567684679933,102.5479187353
1703010,1703,ENGGANO,-5.397975000001,102.24123700002
1703050,1703,KERKAP,-3.5245036520018,102.32403733005
1703051,1703,AIR NAPAL,-3.5964168504988,102.15723833547
1703052,1703,AIR BESI,-3.521856247501,102.16156917653
1703053,1703,HULU PALIK,-3.4440808740004,102.32589123952
1703054,1703,TANJUNG AGUNG PALIK,-3.5586834989873,102.22296711364
1703060,1703,ARGA MAKMUR,-3.3793695479962,102.21769999989
1703061,1703,ARMA JAYA,-3.4348484200027,102.21530687158
1703070,1703,LAIS,-3.4964533389999,102.0640621485
1703071,1703,BATIK NAU,-3.3845753059991,102.00917005298
1703072,1703,GIRI MULYA,-3.2057269994995,102.08059999998
1703073,1703,AIR PADANG,-3.4259098269975,102.08815672542
1703080,1703,PADANG JAYA,-3.3129652124996,102.17382670699
1703090,1703,KETAHUN,-3.3035212779993,101.84700258698
1703091,1703,NAPAL PUTIH,-3.1273758129992,102.02314999947
1703092,1703,ULOK KUPAI,-3.0996394999999,101.9130148725
1703093,1703,PINANG RAYA,-3.2941552290003,101.86746530301
1703100,1703,PUTRI HIJAU,-3.2171079000001,101.680243538
1703101,1703,MARGA SAKTI SEBELAT,-3.1442120000028,101.71215000109
1703110,1703,PADANG BANO,,
1704010,1704,NASAL,-4.7599483134993,103.62935110048
1704020,1704,MAJE,-4.6988168925005,103.50795789251
1704030,1704,KAUR SELATAN,-4.7079406744966,103.39846014192
1704031,1704,TETAP,-4.6933053114996,103.38346696949
1704040,1704,KAUR TENGAH,-4.7064173954987,103.30870498747
1704041,1704,LUAS,-4.6484341475033,103.37318268207
1704042,1704,MUARA SAHUNG,-4.4732950330009,103.42123823452
1704050,1704,KINAL,-4.5293936900013,103.30402958403
1704051,1704,SEMIDANG GUMAY,-4.6610086990015,103.25194192754
1704060,1704,TANJUNG KEMUNING,-4.5921840740014,103.16741228353
1704061,1704,KELAM TENGAH,-4.5665959350154,103.20654517835
1704070,1704,KAUR UTARA,-4.4653039914947,103.20904114038
1704071,1704,PADANG GUCI HILIR,-4.4918502775012,103.14119466803
1704072,1704,LUNGKANG KULE,-4.553533763013,103.24815056779
1704073,1704,PADANG GUCI HULU,-4.3821059294992,103.31602659398
1705010,1705,SEMIDANG ALAS MARAS,-4.2790145759963,102.79065184041
1705020,1705,SEMIDANG ALAS,-4.1362215349998,102.8836657555
1705030,1705,TALO,-4.1538797629988,102.66952811297
1705031,1705,ILIR TALO,-4.2153857345003,102.62171821701
1705032,1705,TALO KECIL,-4.2159112329948,102.73801474288
1705033,1705,ULU TALO,-4.0392993795006,102.76371755952
1705040,1705,SELUMA,-4.0688664725034,102.5626727491
1705041,1705,SELUMA SELATAN,-4.1110725654897,102.53444615724
1705042,1705,SELUMA BARAT,-4.0545556669987,102.49708063997
1705043,1705,SELUMA TIMUR,-4.1012756109993,102.61433666498
1705044,1705,SELUMA UTARA,-3.9495890694996,102.66617081899
1705050,1705,SUKARAJA,-3.9153119989989,102.39240687497
1705051,1705,AIR PERIUKAN,-3.9958858109998,102.40993349099
1705052,1705,LUBUK SANDI,-3.9141791165005,102.53512028652
1706010,1706,IPUH,-2.9915689694993,101.48623758348
1706011,1706,AIR RAMI,-3.020989435999,101.65871515147
1706012,1706,MALIN DEMAN,-2.8254635575,101.6971839295
1706020,1706,PONDOK SUGUH,-2.7244242995001,101.53481826901
1706021,1706,SUNGAI RUMBAI,-2.7690220059996,101.57525593149
1706022,1706,TERAMANG JAYA,-2.6816568089995,101.47083390498
1706030,1706,TERAS TERUNJAM,-2.5596118370028,101.23520911162
1706031,1706,PENARIK,-2.6004222210003,101.43320256801
1706032,1706,SELAGAN RAYA,-2.4953717494994,101.40451773247
1706040,1706,KOTA MUKOMUKO,-2.5822370964997,101.12871670749
1706041,1706,AIR DIKIT,-2.6573809265014,101.24758243455
1706042,1706,XIV KOTO,-2.4722554620006,101.07906592353
1706050,1706,LUBUK PINANG,-2.4218647319985,101.15062282944
1706051,1706,AIR MANJUNTO,-2.4899818365039,101.17028564767
1706052,1706,V KOTO,-2.417600936,101.309165751
1707010,1707,RIMBO PENGADANG,-3.3092452585005,102.42690518052
1707011,1707,TOPOS,-3.149201685499,102.40262183597
1707020,1707,LEBONG SELATAN,-3.2766269024986,102.33756217245
1707021,1707,BINGIN KUNING,-3.1752662779974,102.28567472942
1707030,1707,LEBONG TENGAH,-3.2106047174995,102.22459285648
1707031,1707,LEBONG SAKTI,-3.1142780285038,102.27952638213
1707040,1707,LEBONG ATAS,-3.1801297604825,102.17910622044
1707042,1707,PELABAI,-3.1441987709916,102.16142471723
1707050,1707,LEBONG UTARA,-3.1171400600006,102.17648584103
1707051,1707,AMEN,-3.1268411309926,102.21682237775
1707052,1707,URAM JAYA,-3.072768911497,102.2596114099
1707053,1707,PINANG BELAPIS,-2.9105552870005,102.08410551802
1708010,1708,MUARA KEMUMU,-3.6094432080013,102.73577948304
1708020,1708,BERMANI ILIR,-3.6845844550026,102.70576463708
1708030,1708,SEBERANG MUSI,-3.7331754649981,102.63077952545
1708040,1708,TEBAT KARAI,-3.6486178020065,102.63940796368
1708050,1708,KEPAHIANG,-3.6355312035045,102.56988192863
1708060,1708,KABA WETAN,-3.5725527204961,102.61735130939
1708070,1708,UJAN MAS,-3.5576274015005,102.52198008452
1708080,1708,MERIGI,-3.5066722165154,102.52742841496
1709010,1709,TALANG EMPAT,-3.8056530005035,102.3813963791
1709020,1709,KARANG TINGGI,-3.7638920000001,102.46267821201
1709030,1709,TABA PENANJUNG,-3.7126681860014,102.50999146854
1709031,1709,MERIGI KELINDANG,-3.5882061619983,102.45853938345
1709040,1709,PAGAR JATI,-3.5965974999979,102.39525000045
1709041,1709,MERIGI SAKTI,-3.6192134989992,102.41415000048
1709050,1709,PONDOK KELAPA,-3.6765959990014,102.27248692954
1709051,1709,PONDOK KUBANG,-3.6918474999995,102.35259999999
1709060,1709,PEMATANG TIGA,-3.5767880005003,102.30540000051
1709061,1709,BANG HAJI,-3.5977154999979,102.32754999895
1771010,1771,SELEBAR,-3.8436871575012,102.35491811403
1771011,1771,KAMPUNG MELAYU,-3.8883143514986,102.30645079046
1771020,1771,GADING CEMPAKA,-3.8268614329835,102.30496501056
1771021,1771,RATU AGUNG,-3.8106019670297,102.27910688629
1771022,1771,RATU SAMBAN,-3.8015909689732,102.26618994627
1771023,1771,SINGARAN PATI,-3.8100002274572,102.30070891334
1771030,1771,TELUK SEGARA,-3.7904528184621,102.25614595047
1771031,1771,SUNGAI SERUT,-3.787775474508,102.30542014222
1771040,1771,MUARA BANGKA HULU,-3.757500497509,102.29189039174
1801040,1801,BALIK BUKIT,-5.0189793044972,104.06228400544
1801041,1801,SUKAU,-4.9511742594983,104.04536671797
1801042,1801,LUMBOK SEMINUNG,-4.9345853860022,103.89619817654
1801050,1801,BELALAU,-4.9663355624997,104.20896334
1801051,1801,SEKINCAU,-4.9963558595016,104.31044786303
1801052,1801,SUOH,-5.2882085260021,104.29858364654
1801053,1801,BATU BRAK,-5.0958875195071,104.17265369314
1801054,1801,PAGAR DEWA,-4.9329342285,104.3577602545
1801055,1801,BATU KETULIS,-5.0078201580048,104.2560727366
1801056,1801,BANDAR NEGERI SUOH,-5.2327525605002,104.32336461251
1801060,1801,SUMBER JAYA,-4.9968231904948,104.44866525789
1801061,1801,WAY TENONG,-5.0555317544926,104.38346370484
1801062,1801,GEDUNG SURIAN,-5.1064859200034,104.44861308457
1801063,1801,KEBUN TEBU,-5.0612496890014,104.53504452703
1801064,1801,AIR HITAM,-5.1025344605155,104.40731850982
1802010,1802,WONOSOBO,-5.4680662349935,104.53427879487
1802011,1802,SEMAKA,-5.4846901569942,104.46500019889
1802012,1802,BANDAR NEGERI SEMUONG,-5.4305038144916,104.47135325935
1802020,1802,KOTA AGUNG,-5.4617285240064,104.63487562812
1802021,1802,PEMATANG SAWA,-5.7393234504994,104.60952776999
1802022,1802,KOTA AGUNG TIMUR,-5.4951266735199,104.70116572989
1802023,1802,KOTA AGUNG BARAT,-5.4718245089871,104.58483400825
1802030,1802,PULAU PANGGUNG,-5.3384362070132,104.70426140126
1802031,1802,ULUBELU,-5.2846763389958,104.51960972792
1802032,1802,AIR NANINGAN,-5.2519827499972,104.71157180945
1802040,1802,TALANG PADANG,-5.3707231879773,104.76990707706
1802041,1802,SUMBEREJO,-5.3789423405049,104.71572478159
1802042,1802,GISTING,-5.4352019454894,104.7330281783
1802043,1802,GUNUNG ALIP,-5.4053720850423,104.77394861981
1802050,1802,PUGUNG,-5.3989427474984,104.82911004747
1802101,1802,BULOK,-5.4851326080239,104.87818230797
1802110,1802,CUKUH BALAK,-5.7023632809984,104.87857586397
1802111,1802,KELUMBAYAN,-5.7245366024995,105.05362806149
1802112,1802,LIMAU,-5.5627945295065,104.82211634762
1802113,1802,KELUMBAYAN BARAT,-5.6388273440046,105.01949125908
1803060,1803,NATAR,-5.2685232514976,105.22765301195
1803070,1803,JATI AGUNG,-5.2895362339964,105.36124429143
1803080,1803,TANJUNG BINTANG,-5.3873315470061,105.40360236062
1803081,1803,TANJUNG SARI,-5.3459490004966,105.47422288094
1803090,1803,KATIBUNG,-5.543362977001,105.43189790052
1803091,1803,MERBAU MATARAM,-5.4578950824957,105.42995753492
1803092,1803,WAY SULAN,-5.4769577804867,105.54370864974
1803100,1803,SIDOMULYO,-5.5970022130047,105.49419612959
1803101,1803,CANDIPURO,-5.5293162100004,105.54847408801
1803102,1803,WAY PANJI,-5.5985672720244,105.59075977646
1803110,1803,KALIANDA,-5.6951043994937,105.56171999488
1803111,1803,RAJABASA,-5.8714493030044,105.56755058008
1803120,1803,PALAS,-5.6279719294926,105.66706441637
1803121,1803,SRAGI,-5.6376315679912,105.76111874834
1803130,1803,PENENGAHAN,-5.7476904804899,105.69132853531
1803131,1803,KETAPANG,-5.7498261180081,105.76278003415
1803132,1803,BAKAUHENI,-5.8498039124891,105.7269339168
1804010,1804,METRO KIBANG,-5.2043213380157,105.32313710532
1804020,1804,BATANGHARI,-5.149017862992,105.37507582284
1804030,1804,SEKAMPUNG,-5.1656494220056,105.45968582712
1804040,1804,MARGATIGA,-5.1914204104975,105.49427431945
1804050,1804,SEKAMPUNG UDIK,-5.2787084070011,105.54263948102
1804060,1804,JABUNG,-5.4882139159984,105.69277603547
1804061,1804,PASIR SAKTI,-5.5460668179959,105.77525730343
1804062,1804,WAWAY KARYA,-5.4320667075037,105.59667344207
1804063,1804,MARGA SEKAMPUNG,-5.3649172240029,105.64492067456
1804070,1804,LABUHAN MARINGGAI,-5.3448865690015,105.81088079053
1804071,1804,MATARAM BARU,-5.2746170250142,105.75842810879
1804072,1804,BANDAR SRIBAWONO,-5.2699342105019,105.67671902554
1804073,1804,MELINTING,-5.3701826860044,105.73783588659
1804074,1804,GUNUNG PELINDUNG,-5.4267395730085,105.76067585366
1804080,1804,WAY JEPARA,-5.2139098790074,105.69889085166
1804081,1804,BRAJA SLEBAH,-5.1973263904926,105.77411474335
1804082,1804,LABUHAN RATU,-5.1156197950085,105.66307108518
1804090,1804,SUKADANA,-5.1005683855017,105.55459188353
1804091,1804,BUMI AGUNG,-5.1214946329992,105.49830380649
1804092,1804,BATANGHARI NUBAN,-5.0316137974937,105.40259393836
1804100,1804,PEKALONGAN,-5.0668932694854,105.37239474519
1804110,1804,RAMAN UTARA,-4.953555362495,105.44704443939
1804120,1804,PURBOLINGGO,-4.9666702240122,105.50661075377
1804121,1804,WAY BUNGUR,-4.9110482750038,105.53990965208
1805010,1805,PADANG RATU,-5.0790534709965,104.96901894793
1805011,1805,SELAGAI LINGGA,-5.0714657379996,104.71985721149
1805012,1805,PUBIAN,-5.1023889855086,104.85871895168
1805013,1805,ANAK TUHA,-5.0068294270018,105.05928630054
1805014,1805,ANAK RATU AJI,-4.9612067985082,104.94703305467
1805020,1805,KALIREJO,-5.2133413609896,104.9776772473
1805021,1805,SENDANG AGUNG,-5.2041703575027,104.87621530506
1805030,1805,BANGUNREJO,-5.12536127051,105.0345047647
1805040,1805,GUNUNG SUGIH,-4.9838586089974,105.21027830345
1805041,1805,BEKRI,-5.095869309007,105.13522891514
1805042,1805,BUMI RATU NUBAN,-5.0941137984984,105.20762840646
1805050,1805,TRIMURJO,-5.1201082070002,105.25526261802
1805060,1805,PUNGGUR,-5.0375953849931,105.28770873135
1805061,1805,KOTA GAJAH,-4.9843575419977,105.33828597045
1805070,1805,SEPUTIH RAMAN,-4.8905192954924,105.36312598784
1805080,1805,TERBANGGI BESAR,-4.8913673945035,105.22840238658
1805081,1805,SEPUTIH AGUNG,-4.9450119315111,105.13075318473
1805082,1805,WAY PENGUBUAN,-4.8428266480004,105.19586953451
1805090,1805,TERUSAN NUNYAI,-4.7084269094994,105.21004968248
1805100,1805,SEPUTIH MATARAM,-4.8029800245008,105.34999676252
1805101,1805,BANDAR MATARAM,-4.6366358699998,105.5494950615
1805110,1805,SEPUTIH BANYAK,-4.8397815305081,105.47265732618
1805111,1805,WAY SEPUTIH,-4.788887910999,105.45337706048
1805120,1805,RUMBIA,-4.7668697775059,105.57425100863
1805121,1805,BUMI NABUNG,-4.6721424850005,105.55046304051
1805122,1805,PUTRA RUMBIA,-4.8315542474931,105.59071587334
1805130,1805,SEPUTIH SURABAYA,-4.6848463229999,105.6404499375
1805131,1805,BANDAR SURABAYA,-4.6939832239948,105.75065142938
1806010,1806,BUKIT KEMUNING,-4.9260030895001,104.558521412
1806011,1806,ABUNG TINGGI,-4.8770165965057,104.61096571763
1806020,1806,TANJUNG RAJA,-4.9761358999981,104.64965184596
1806030,1806,ABUNG BARAT,-4.8506421925,104.70606143749
1806031,1806,ABUNG TENGAH,-4.9389388754913,104.74199629382
1806032,1806,ABUNG  KUNANG,-4.885723255008,104.80432201268
1806033,1806,ABUNG PEKURUN,-4.9981835085039,104.72957709708
1806040,1806,KOTABUMI,-4.8219320600049,104.86004884261
1806041,1806,KOTABUMI UTARA,-4.7121175014988,104.84830194447
1806042,1806,KOTABUMI SELATAN,-4.9000386505012,104.87529366603
1806050,1806,ABUNG SELATAN,-4.9089754685047,104.9215850421
1806051,1806,ABUNG SEMULI,-4.8105055609989,105.05253581797
1806052,1806,BLAMBANGAN PAGAR,-4.8809150940061,105.01289463464
1806060,1806,ABUNG TIMUR,-4.7426127260009,104.97646293302
1806061,1806,ABUNG SURAKARTA,-4.719771150499,105.04660221048
1806070,1806,SUNGKAI SELATAN,-4.7016784844995,104.78136057849
1806071,1806,MUARA SUNGKAI,-4.6163017984973,104.95976174944
1806072,1806,BUNGA MAYANG,-4.6085085899985,104.88579252597
1806073,1806,SUNGKAI  BARAT,-4.7868485219965,104.67807773743
1806074,1806,SUNGKAI JAYA,-4.8164219690093,104.75275823321
1806080,1806,SUNGKAI UTARA,-4.6300963620044,104.7461769131
1806081,1806,HULUSUNGKAI,-4.654146279499,104.66332771698
1806082,1806,SUNGKAI TENGAH,-4.713233539498,104.70882855945
1807010,1807,BANJIT,-4.8275307474993,104.44819960048
1807020,1807,BARADATU,-4.7122698929982,104.52835598546
1807021,1807,GUNUNG LABUHAN,-4.7370922529984,104.58328186847
1807030,1807,KASUI,-4.7361781554993,104.39590031249
1807031,1807,REBANG TANGKAS,-4.6759864395007,104.36396857801
1807040,1807,BLAMBANGAN UMPU,-4.5369614250005,104.47646054251
1807041,1807,WAY TUBA,-4.4506876260004,104.40701281151
1807042,1807,NEGERI AGUNG,-4.528939246499,104.65387270698
1807050,1807,BAHUGA,-4.3062454205019,104.63724815305
1807051,1807,BUAY  BAHUGA,-4.2755693110067,104.54577605217
1807052,1807,BUMI AGUNG,-4.3468357860033,104.52528094159
1807060,1807,PAKUAN RATU,-4.4150309449996,104.76603905399
1807061,1807,NEGARA BATIN,-4.3211575799986,104.89103138297
1807062,1807,NEGERI BESAR,-4.4630121070009,104.97090980702
1808030,1808,BANJAR AGUNG,-4.2958555635029,105.24132490157
1808031,1808,BANJAR MARGO,-4.2215836079982,105.29829144496
1808032,1808,BANJAR BARU,-4.3545706700017,105.26523410854
1808040,1808,GEDUNG AJI,-4.276947047,105.463900515
1808041,1808,PENAWAR AJI,-4.2834667460007,105.48487057802
1808042,1808,MERAKSA AJI,-4.270296572496,105.42789746841
1808050,1808,MENGGALA,-4.5441962825017,105.22249660754
1808051,1808,PENAWAR TAMA,-4.1764033800005,105.44041624851
1808052,1808,RAWAJITU SELATAN,-4.2441930469975,105.71350878593
1808053,1808,GEDUNG MENENG,-4.4490106430002,105.504623871
1808054,1808,RAWAJITU TIMUR,-4.2596776900013,105.80566474303
1808055,1808,RAWA PITU,-4.305142745499,105.59798705598
1808056,1808,GEDUNG AJI BARU,-4.2373198195026,105.57795079657
1808057,1808,DENTE TELADAS,-4.4970613090002,105.7969448265
1808058,1808,MENGGALA TIMUR,-4.4019290190035,105.30084986658
1809010,1809,PUNDUH PIDADA,-5.7728322855006,105.24188898351
1809011,1809,MARGA PUNDUH,-5.6783223320079,105.19000618115
1809020,1809,PADANG CERMIN,-5.6116686564871,105.14690685626
1809021,1809,TELUK PANDAN,-5.5392165054906,105.22077613483
1809022,1809,WAY RATAI,-5.5704262909955,105.07155031092
1809030,1809,KEDONDONG,-5.5091870514912,105.03110384534
1809031,1809,WAY KHILAU,-5.4880949359836,104.96442837118
1809040,1809,WAY LIMA,-5.4362997469983,105.01344001098
1809050,1809,GEDUNG TATAAN,-5.3957298725037,105.12505407657
1809060,1809,NEGERI KATON,-5.2750686634993,105.12587996849
1809070,1809,TEGINENENG,-5.1851062254922,105.13911422534
1810010,1810,PARDASUKA,-5.4971462234875,104.91475468276
1810020,1810,AMBARAWA,-5.4094790835124,104.93746250825
